[{"id":"20th-century-bowl","name":"20th Century Bowl","address":"1411 N State St","city":"Bellingham","postal_code":"98225","latitude":48.75003615,"longitude":-122.47532323797702,"phone":"(360) 734-5250","url":"http://20thcenturybowl.com/","all_ages":true,"num_games":7,"machines":[{"id":5657,"title":{"id":430,"name":"Batman (Stern)"}},{"id":5658,"title":{"id":2332,"name":"Indiana Jones (Stern)"}},{"id":5659,"title":{"id":4288,"name":"Spider-Man"}},{"id":5660,"title":{"id":6047,"name":"Star Wars (Stern Pro)"}},{"id":5662,"title":{"id":6178,"name":"Teenage Mutant Ninja Turtles (Stern Pro)"}},{"id":5661,"title":{"id":4991,"name":"TRON Legacy"}},{"id":5663,"title":{"id":5483,"name":"X-Men (Pro)"}}]},{"id":"4bs-ballard-grill-alehouse","name":"4Bs - Ballard Grill \u0026 Alehouse","address":"4300 Leary Way NW","city":"Seattle","postal_code":"98107 ","latitude":47.659121,"longitude":-122.3645602,"phone":"(206) 782-9024","url":"https://www.facebook.com/TheBBBB/","all_ages":false,"num_games":1,"machines":[{"id":5699,"title":{"id":3150,"name":"No Fear: Dangerous Sports"}}]},{"id":"8-bit-arcade-bar","name":"8-bit Arcade Bar","address":"916 S. 3rd st","city":"Renton","postal_code":"98057","latitude":47.47982950000001,"longitude":-122.2049444,"phone":"(425) 291-7693","url":"https://www.facebook.com/pages/8-bit-Arcade-Bar/434005613350903","all_ages":true,"num_games":28,"machines":[{"id":3792,"title":{"id":4711,"name":"The Addams Family Special Collectors Edition"}},{"id":1243,"title":{"id":271,"name":"Attack from Mars"}},{"id":5310,"title":{"id":6182,"name":"The Avengers Infinity Quest (Premium)"}},{"id":4241,"title":{"id":6164,"name":"Black Knight: Sword of Rage (Limited Edition)"}},{"id":2387,"title":{"id":1175,"name":"Creature from the Black Lagoon"}},{"id":3735,"title":{"id":1224,"name":"Cyclone"}},{"id":3726,"title":{"id":6153,"name":"Deadpool (Premium)"}},{"id":4532,"title":{"id":6173,"name":"Elvira’s House of Horrors (Limited Edition)"}},{"id":5309,"title":{"id":5965,"name":"Game of Thrones (Premium)"}},{"id":3342,"title":{"id":6148,"name":"Iron Maiden Legacy Of The Beast (Premium)"}},{"id":4374,"title":{"id":6169,"name":"Jurassic Park (Stern Pro)"}},{"id":5308,"title":{"id":2898,"name":"Medieval Madness"}},{"id":1837,"title":{"id":3006,"name":"Monopoly"}},{"id":2904,"title":{"id":3402,"name":"PINBOT"}},{"id":4598,"title":{"id":6151,"name":"Pirates of the Caribbean (Jersey Jack)"}},{"id":5307,"title":{"id":6176,"name":"Rick And Morty"}},{"id":4449,"title":{"id":3709,"name":"Ripley's Believe It or Not!"}},{"id":2335,"title":{"id":4780,"name":"The Simpsons"}},{"id":5838,"title":{"id":4781,"name":"The Simpsons Pinball Party"}},{"id":5799,"title":{"id":4288,"name":"Spider-Man"}},{"id":3236,"title":{"id":5769,"name":"Star Trek (Vengeance Premium)"}},{"id":2831,"title":{"id":6053,"name":"Star Wars (Stern Premium)"}},{"id":5665,"title":{"id":6199,"name":"Star Wars The Mandalorian (Pro)"}},{"id":4584,"title":{"id":6174,"name":"Stranger Things (Pro)"}},{"id":1892,"title":{"id":4647,"name":"Tales of the Arabian Nights"}},{"id":5306,"title":{"id":6178,"name":"Teenage Mutant Ninja Turtles (Stern Pro)"}},{"id":1271,"title":{"id":4794,"name":"Theatre of Magic"}},{"id":4301,"title":{"id":6168,"name":"Willy Wonka and the Chocolate Factory - Standard Edition"}}]},{"id":"9lb-hammer","name":"9LB Hammer","address":"6009 Airport Way S","city":"Seattle","postal_code":"98108","latitude":47.5490304,"longitude":-122.316744,"phone":"(206) 762-3373","url":"http://www.ninepoundhammer.com/","all_ages":false,"num_games":3,"machines":[{"id":5747,"title":{"id":6162,"name":"Black Knight: Sword of Rage (Pro)"}},{"id":5746,"title":{"id":6169,"name":"Jurassic Park (Stern Pro)"}},{"id":5739,"title":{"id":3007,"name":"Monster Bash"}}]},{"id":"add-a-ball-amusements","name":"Add-a-Ball Amusements","address":"315 N 36th St #2b","city":"Seattle","postal_code":"98103","latitude":47.652055,"longitude":-122.3549328,"phone":"(206) 696-1613","url":"http://add-a-ball.com/","all_ages":false,"num_games":20,"machines":[{"id":3617,"title":{"id":5723,"name":"AC/DC (LUCI Premium)"}},{"id":5576,"title":{"id":4710,"name":"The Addams Family"}},{"id":2965,"title":{"id":6048,"name":"Attack From Mars (Remake Limited Edition)"}},{"id":5619,"title":{"id":309,"name":"Bad Cats"}},{"id":4711,"title":{"id":6162,"name":"Black Knight: Sword of Rage (Pro)"}},{"id":3836,"title":{"id":1436,"name":"Dragonfist"}},{"id":5620,"title":{"id":1486,"name":"Eight Ball Deluxe (1980 Bally)"}},{"id":4884,"title":{"id":1603,"name":"Fathom"}},{"id":5616,"title":{"id":2072,"name":"Harlem Globetrotters On Tour"}},{"id":5618,"title":{"id":2334,"name":"Indiana Jones (Williams)"}},{"id":5621,"title":{"id":6171,"name":"Jurassic Park (Limited Edition)"}},{"id":5738,"title":{"id":2898,"name":"Medieval Madness"}},{"id":4083,"title":{"id":6157,"name":"Monster Bash (Remake Classic Edition)"}},{"id":5305,"title":{"id":3148,"name":"Nitro Ground Shaker"}},{"id":5827,"title":{"id":3601,"name":"Radical!"}},{"id":5614,"title":{"id":3785,"name":"Rolling Stones (Bally)"}},{"id":5668,"title":{"id":6197,"name":"Star Wars The Mandalorian (LE) "}},{"id":149,"title":{"id":4595,"name":"Surf Champ"}},{"id":5617,"title":{"id":4670,"name":"Taxi"}},{"id":4912,"title":{"id":6180,"name":"Teenage Mutant Ninja Turtles (Limited Edition)"}}]},{"id":"admiral-pub","name":"Admiral Pub","address":"2306 California Ave SW","city":"Seattle","postal_code":"98116","latitude":47.5826988,"longitude":-122.3862243,"phone":"(206) 933-9500","url":"https://www.facebook.com/AdmiralPub/","all_ages":false,"num_games":15,"machines":[{"id":4833,"title":{"id":6035,"name":"Aerosmith (Pro)"}},{"id":4915,"title":{"id":6181,"name":"The Avengers Infinity Quest (Pro) "}},{"id":4871,"title":{"id":6004,"name":"Batman (66 Premium)"}},{"id":4914,"title":{"id":6162,"name":"Black Knight: Sword of Rage (Pro)"}},{"id":4615,"title":{"id":6150,"name":"Deadpool (Pro)"}},{"id":5434,"title":{"id":6172,"name":"Elvira’s House of Horrors (Premium)"}},{"id":4875,"title":{"id":6136,"name":"Guardians of the Galaxy (Pro)"}},{"id":4834,"title":{"id":6147,"name":"Iron Maiden Legacy of the Beast (Pro)"}},{"id":4617,"title":{"id":6169,"name":"Jurassic Park (Stern Pro)"}},{"id":5512,"title":{"id":6184,"name":"Led Zeppelin (Pro)"}},{"id":4836,"title":{"id":6155,"name":"The Munsters (Pro)"}},{"id":4616,"title":{"id":6047,"name":"Star Wars (Stern Pro)"}},{"id":4868,"title":{"id":6174,"name":"Stranger Things (Pro)"}},{"id":4876,"title":{"id":6178,"name":"Teenage Mutant Ninja Turtles (Stern Pro)"}},{"id":4835,"title":{"id":4794,"name":"Theatre of Magic"}}]},{"id":"airport-tavern","name":"Airport Tavern","address":"5406 S Tacoma Way","city":"Tacoma ","postal_code":"98409","latitude":47.20780329999999,"longitude":-122.4841537,"phone":"(253) 212-0709","url":"https://www.facebook.com/airporttav/","all_ages":false,"num_games":12,"machines":[{"id":5583,"title":{"id":6181,"name":"The Avengers Infinity Quest (Pro) "}},{"id":5592,"title":{"id":6162,"name":"Black Knight: Sword of Rage (Pro)"}},{"id":5585,"title":{"id":6153,"name":"Deadpool (Premium)"}},{"id":5591,"title":{"id":1988,"name":"Grand Prix (Stern)"}},{"id":5587,"title":{"id":6147,"name":"Iron Maiden Legacy of the Beast (Pro)"}},{"id":5588,"title":{"id":5658,"name":"Metallica (Pro)"}},{"id":5584,"title":{"id":6155,"name":"The Munsters (Pro)"}},{"id":5590,"title":{"id":3088,"name":"NBA Fastbreak"}},{"id":5593,"title":{"id":3780,"name":"RollerCoaster Tycoon"}},{"id":5586,"title":{"id":6047,"name":"Star Wars (Stern Pro)"}},{"id":5792,"title":{"id":6199,"name":"Star Wars The Mandalorian (Pro)"}},{"id":5594,"title":{"id":5301,"name":"World Cup Soccer"}}]},{"id":"all-star-lanes","name":"All Star Lanes","address":" 10710 Silverdale Way NW","city":"Silverdale","postal_code":"98383","latitude":47.6598159387755,"longitude":-122.685659387755,"phone":"360-692-5760","url":"http://www.playallstar.com/","all_ages":true,"num_games":1,"machines":[{"id":4094,"title":{"id":5971,"name":"Ghostbusters (Pro)"}}]},{"id":"al-s-tavern","name":"Al’s Tavern","address":"2303 N 45th St","city":"Seattle","postal_code":"98103","latitude":47.6611933,"longitude":-122.331165,"phone":"(206) 545-9959","url":"https://www.facebook.com/pages/Als-Tavern/115747098455378","all_ages":false,"num_games":3,"machines":[{"id":5664,"title":{"id":6162,"name":"Black Knight: Sword of Rage (Pro)"}},{"id":5514,"title":{"id":3411,"name":"Pirates of the Caribbean (Stern)"}},{"id":5515,"title":{"id":5600,"name":"Star Trek (Starfleet Pro Stern)"}}]},{"id":"andy-s-handy-mart","name":"Andy’s Handy Mart","address":"150 SW 160th St","city":"Burien","postal_code":"98166","latitude":47.4599753,"longitude":-122.3363251,"phone":"(206) 246-4444","url":"http://www.andyshandymart.com/","all_ages":true,"num_games":1,"machines":[{"id":5831,"title":{"id":5374,"name":"Transformers (Pro)"}}]},{"id":"another-castle","name":"Another Castle","address":"3333 184th St SW, Suite H","city":"Lynnwood","postal_code":"98037","latitude":47.83331150000001,"longitude":-122.2790799,"phone":"425-361-7685","url":"http://www.anothercastlegames.com/lynnwood/","all_ages":true,"num_games":5,"machines":[{"id":5371,"title":{"id":5582,"name":"The Avengers (Limited Edition)"}},{"id":5450,"title":{"id":6004,"name":"Batman (66 Premium)"}},{"id":5372,"title":{"id":1639,"name":"Fire!"}},{"id":5373,"title":{"id":4550,"name":"Super Mario Bros."}},{"id":5374,"title":{"id":6180,"name":"Teenage Mutant Ninja Turtles (Limited Edition)"}}]},{"id":"another-castle-arcade-edition","name":"Another Castle Arcade Edition","address":"23303 Highway 99, Suite A","city":"Edmonds","postal_code":"98026","latitude":47.7875469,"longitude":-122.3404144,"phone":"(425) 967-7043","url":"http://anothercastlearcade.com","all_ages":true,"num_games":16,"machines":[{"id":5522,"title":{"id":4713,"name":"The Amazing Spider-Man"}},{"id":5756,"title":{"id":6183,"name":"The Avengers Infinity Quest (Limited Edition)"}},{"id":4722,"title":{"id":6004,"name":"Batman (66 Premium)"}},{"id":1956,"title":{"id":1483,"name":"Eight Ball"}},{"id":4797,"title":{"id":1578,"name":"Family Guy"}},{"id":5757,"title":{"id":5966,"name":"Game of Thrones (Limited Edition)"}},{"id":5520,"title":{"id":5971,"name":"Ghostbusters (Pro)"}},{"id":5755,"title":{"id":6177,"name":"Hot Wheels"}},{"id":1968,"title":{"id":2898,"name":"Medieval Madness"}},{"id":3840,"title":{"id":3006,"name":"Monopoly"}},{"id":4099,"title":{"id":6157,"name":"Monster Bash (Remake Classic Edition)"}},{"id":4987,"title":{"id":4288,"name":"Spider-Man"}},{"id":5524,"title":{"id":4670,"name":"Taxi"}},{"id":5523,"title":{"id":4695,"name":"Terminator 2: Judgment Day"}},{"id":4503,"title":{"id":6145,"name":"Total Nuclear Annihilation"}},{"id":4072,"title":{"id":5038,"name":"Twilight Zone"}}]},{"id":"another-castle-marysville-retail","name":"Another Castle Marysville/Retail","address":"8628 36th Ave NE ","city":"Marysville","postal_code":"98270","latitude":48.0746696,"longitude":-122.1828074,"phone":"(360) 322-7571","url":"https://www.facebook.com/AnotherCastleMarysville/","all_ages":true,"num_games":8,"machines":[{"id":5274,"title":{"id":6161,"name":"Deadpool (LE)"}},{"id":5276,"title":{"id":1578,"name":"Family Guy"}},{"id":4686,"title":{"id":6136,"name":"Guardians of the Galaxy (Pro)"}},{"id":4038,"title":{"id":2084,"name":"Haunted House"}},{"id":4687,"title":{"id":3411,"name":"Pirates of the Caribbean (Stern)"}},{"id":4691,"title":{"id":4781,"name":"The Simpsons Pinball Party"}},{"id":5275,"title":{"id":6047,"name":"Star Wars (Stern Pro)"}},{"id":5273,"title":{"id":4551,"name":"Super Mario Bros. Mushroom World"}}]},{"id":"ashley-s-pub","name":"Ashley's Pub","address":"409 Pacific Ave, Suite 101","city":"Bremerton","postal_code":"98366","latitude":47.5660001,"longitude":-122.6272233,"phone":"(360) 813-1633","url":"https://www.facebook.com/ashleyspubkitsap/","all_ages":false,"num_games":4,"machines":[{"id":4916,"title":{"id":6165,"name":"Alice Cooper's Nightmare Castle"}},{"id":5684,"title":{"id":4757,"name":"The Lord of the Rings"}},{"id":5685,"title":{"id":3151,"name":"No Good Gofers"}},{"id":5393,"title":{"id":5829,"name":"The Walking Dead (Pro)"}}]},{"id":"ay-tequila","name":"Ay Tequila","address":"1700 SE Mile Hill Dr ","city":"Port Orchard","postal_code":"98312","latitude":47.5339757,"longitude":-122.6231621,"phone":"(360) 895-5420","url":"","all_ages":true,"num_games":2,"machines":[{"id":4577,"title":{"id":4710,"name":"The Addams Family"}},{"id":4578,"title":{"id":3007,"name":"Monster Bash"}}]},{"id":"back-door-pub","name":"Back Door Pub","address":" 12330 Lake City Way NE","city":"Seattle","postal_code":"98125","latitude":47.7182759,"longitude":-122.2955772,"phone":"(206) 364-2642","url":"https://www.facebook.com/BackDoorPub/","all_ages":false,"num_games":1,"machines":[{"id":5772,"title":{"id":5829,"name":"The Walking Dead (Pro)"}}]},{"id":"bad-jimmy-s-brewing-co","name":"Bad Jimmy's Brewing Co.","address":"4358 B Leary Way NW","city":"Seattle","postal_code":" 98107","latitude":47.6604032,"longitude":-122.3654064,"phone":"(206) 789-1548","url":"http://www.badjimmysbrewingco.com/#home","all_ages":true,"num_games":1,"machines":[{"id":5771,"title":{"id":6178,"name":"Teenage Mutant Ninja Turtles (Stern Pro)"}}]},{"id":"bainbridge-island-brewing","name":"Bainbridge Island Brewing","address":"9415 Coppertop Loop NE","city":"Bainbridge Island","postal_code":"98110","latitude":47.6483275,"longitude":-122.5253463,"phone":"(206) 451-4646","url":"https://bainbridgebeer.com/","all_ages":false,"num_games":4,"machines":[{"id":4570,"title":{"id":4725,"name":"The Champion Pub"}},{"id":5702,"title":{"id":2334,"name":"Indiana Jones (Williams)"}},{"id":5703,"title":{"id":4757,"name":"The Lord of the Rings"}},{"id":5701,"title":{"id":5221,"name":"White Water"}}]},{"id":"belltown-pizza","name":"Belltown Pizza","address":"2422 1st Ave","city":"Seattle","postal_code":"98121","latitude":47.614679,"longitude":-122.3482796,"phone":"(206) 441-2653","url":"http://belltownpizza.net/","all_ages":true,"num_games":4,"machines":[{"id":5734,"title":{"id":430,"name":"Batman (Stern)"}},{"id":5735,"title":{"id":1209,"name":"CSI"}},{"id":5736,"title":{"id":4737,"name":"The Flintstones"}},{"id":5737,"title":{"id":3078,"name":"NASCAR"}}]},{"id":"berserk","name":"Berserk ","address":"125 S Stevens St","city":"Spokane","postal_code":"99201","latitude":47.6565907,"longitude":-117.4195407,"phone":"(509) 315-5101","url":"https://www.facebook.com/berserkbarspokane/","all_ages":false,"num_games":8,"machines":[{"id":5427,"title":{"id":644,"name":"Black Jack (Bally 1978)"}},{"id":5428,"title":{"id":1789,"name":"Freefall"}},{"id":5433,"title":{"id":4744,"name":"The Getaway: High Speed II"}},{"id":5425,"title":{"id":6176,"name":"Rick And Morty"}},{"id":5429,"title":{"id":4227,"name":"Space Jam"}},{"id":5432,"title":{"id":4695,"name":"Terminator 2: Judgment Day"}},{"id":5430,"title":{"id":4842,"name":"Time Machine (Data East)"}},{"id":5431,"title":{"id":5221,"name":"White Water"}}]},{"id":"bison-creek-pizza-pub","name":"Bison Creek Pizza \u0026 Pub","address":"630 SW 153rd St","city":"Burien","postal_code":"98166","latitude":47.466159,"longitude":-122.343063,"phone":"(206) 244-8825","url":"http://bisoncreekpizza.com/index.asp","all_ages":false,"num_games":1,"machines":[{"id":4651,"title":{"id":2472,"name":"Junk Yard"}}]},{"id":"black-cat","name":"Black Cat","address":"2132 First Ave","city":"Seattle","postal_code":"98121","latitude":47.6126268,"longitude":-122.3447725,"phone":"(206) 441-2358","url":"https://www.facebook.com/blackcatseattle/","all_ages":false,"num_games":4,"machines":[{"id":5390,"title":{"id":4725,"name":"The Champion Pub"}},{"id":5391,"title":{"id":1817,"name":"Funhouse"}},{"id":5389,"title":{"id":6030,"name":"The Hobbit (Limited Edition)"}},{"id":5388,"title":{"id":5999,"name":"The Pabst Can Crusher"}}]},{"id":"blake-s-pizzeria-ice-cream","name":"Blake's Pizzeria \u0026 Ice Cream","address":"31722 W Eugene St","city":"Carnation","postal_code":"98014","latitude":47.6469,"longitude":-121.917,"phone":"(425) 333-6585","url":"https://www.facebook.com/pages/Blakes-Pizzeria-Ice-Cream/154854904552056","all_ages":true,"num_games":2,"machines":[{"id":4622,"title":{"id":6163,"name":"Black Knight: Sword of Rage (Premium)"}},{"id":4623,"title":{"id":4781,"name":"The Simpsons Pinball Party"}}]},{"id":"blue-goose-tavern","name":"Blue Goose Tavern","address":"1604 Bay St","city":"Port Orchard","postal_code":"98366","latitude":47.544498247444274,"longitude":-122.62382982690306,"phone":"(360) 895-8171","url":"https://www.facebook.com/pages/Blue-Goose-Tavern/458832294288223","all_ages":false,"num_games":2,"machines":[{"id":4917,"title":{"id":6162,"name":"Black Knight: Sword of Rage (Pro)"}},{"id":5682,"title":{"id":1136,"name":"Corvette"}}]},{"id":"bowl-and-skate","name":"Bowl and Skate","address":"6210 200th St Sw","city":"Lynnwood","postal_code":"98036","latitude":47.8168689,"longitude":-122.31735,"phone":"(425) 778-3133","url":"http://bowlandskate.com","all_ages":true,"num_games":1,"machines":[{"id":1138,"title":{"id":3686,"name":"Revenge From Mars"}}]},{"id":"bubba-s-place","name":"Bubba's Place","address":"21237 84th Ave S ","city":"Kent","postal_code":"98032","latitude":47.4095392,"longitude":-122.2283751,"phone":" (253) 872-8854","url":"https://www.facebook.com/Bubbas-Place-121358541212494/","all_ages":false,"num_games":1,"machines":[{"id":4656,"title":{"id":271,"name":"Attack from Mars"}}]},{"id":"cactus-moon","name":"Cactus Moon","address":"717 128th St Sw Ste A116","city":"Everett","postal_code":"98204","latitude":47.8825545,"longitude":-122.2435565,"phone":"(425) 745-9855","url":"http://thecactusmoonsaloon.com","all_ages":false,"num_games":1,"machines":[{"id":4480,"title":{"id":5971,"name":"Ghostbusters (Pro)"}}]},{"id":"caskcades","name":"CaskCades","address":"106-A N Meridian","city":"Puyallup","postal_code":"98371","latitude":47.1928819,"longitude":-122.2933303,"phone":"(253) 256-4210","url":"https://www.facebook.com/CaskCades/","all_ages":true,"num_games":5,"machines":[{"id":5687,"title":{"id":6150,"name":"Deadpool (Pro)"}},{"id":5688,"title":{"id":6147,"name":"Iron Maiden Legacy of the Beast (Pro)"}},{"id":4874,"title":{"id":6169,"name":"Jurassic Park (Stern Pro)"}},{"id":3079,"title":{"id":6047,"name":"Star Wars (Stern Pro)"}},{"id":5689,"title":{"id":6174,"name":"Stranger Things (Pro)"}}]},{"id":"c-bar","name":"C-Bar","address":"2880 SE Gladstone St","city":"Portland","postal_code":"97202","latitude":45.4932783913043,"longitude":-122.63606,"phone":"(503) 230-8808","url":"http://cbarportland.com/","all_ages":true,"num_games":15,"machines":[{"id":4178,"title":{"id":263,"name":"Atlantis (Gottleib)"}},{"id":4167,"title":{"id":6004,"name":"Batman (66 Premium)"}},{"id":4177,"title":{"id":642,"name":"Black Hole (Gottleib)"}},{"id":4176,"title":{"id":648,"name":"Black Knight 2000"}},{"id":4174,"title":{"id":6150,"name":"Deadpool (Pro)"}},{"id":4171,"title":{"id":2336,"name":"Indianapolis 500"}},{"id":4172,"title":{"id":6148,"name":"Iron Maiden Legacy Of The Beast (Premium)"}},{"id":4175,"title":{"id":2369,"name":"JackBot"}},{"id":4170,"title":{"id":2408,"name":"Johnny Mnemonic"}},{"id":4165,"title":{"id":2439,"name":"Judge Dredd"}},{"id":2437,"title":{"id":2898,"name":"Medieval Madness"}},{"id":4169,"title":{"id":6157,"name":"Monster Bash (Remake Classic Edition)"}},{"id":4173,"title":{"id":6155,"name":"The Munsters (Pro)"}},{"id":4166,"title":{"id":4784,"name":"The Sopranos"}},{"id":4168,"title":{"id":4991,"name":"TRON Legacy"}}]},{"id":"cha-cha-lounge","name":"Cha Cha Lounge","address":"1013 E Pike St","city":"Seattle","postal_code":"98122","latitude":47.6140756,"longitude":-122.3192652,"phone":"(206) 322-0703","url":"http://www.chachalounge.com/seattle/","all_ages":false,"num_games":2,"machines":[{"id":5758,"title":{"id":1655,"name":"Fish Tales"}},{"id":5759,"title":{"id":4695,"name":"Terminator 2: Judgment Day"}}]},{"id":"channel-marker","name":"Channel Marker","address":"120 W Dayton St D1","city":"Edmonds","postal_code":"98020","latitude":47.80927,"longitude":-122.385007,"phone":"(425) 275-9590","url":"https://thechannelmarkerpubngrill.com/","all_ages":false,"num_games":1,"machines":[{"id":4438,"title":{"id":3007,"name":"Monster Bash"}}]},{"id":"christy-s-bar-grill","name":"Christy's Bar \u0026 Grill","address":"1055 Sunset Blvd NE","city":"Renton","postal_code":"98056","latitude":47.5006977,"longitude":-122.190076494874,"phone":"(425) 255-9213","url":"https://christys-bar-and-grill.business.site/","all_ages":false,"num_games":1,"machines":[{"id":4858,"title":{"id":4781,"name":"The Simpsons Pinball Party"}}]},{"id":"city-hall-saloon","name":"City Hall Saloon","address":"35317 314th Way SE","city":"Enumclaw","postal_code":"98022","latitude":47.283408,"longitude":-121.92590320810345,"phone":"(360) 886-0569","url":"https://www.facebook.com/City-Hall-Saloon-109229069137055/","all_ages":false,"num_games":1,"machines":[{"id":4662,"title":{"id":2472,"name":"Junk Yard"}}]},{"id":"classics-sports-bar","name":"Classics Sports Bar","address":"2431 Maple Valley Hwy","city":"Renton","postal_code":"98057","latitude":47.4773759,"longitude":-122.1867123,"phone":"(425) 277-0314","url":"https://www.facebook.com/Classics-Sports-Bar-116156405078690/","all_ages":false,"num_games":1,"machines":[{"id":4649,"title":{"id":4781,"name":"The Simpsons Pinball Party"}}]},{"id":"coindexter-s","name":"Coindexter's","address":"8556 Greenwood Ave N","city":"Seattle","postal_code":"98103","latitude":47.69160489999999,"longitude":-122.3550134,"phone":"(206) 783-0477","url":"https://www.facebook.com/Coindexters/","all_ages":false,"num_games":12,"machines":[{"id":5295,"title":{"id":445,"name":"Baywatch"}},{"id":5296,"title":{"id":5966,"name":"Game of Thrones (Limited Edition)"}},{"id":3318,"title":{"id":6147,"name":"Iron Maiden Legacy of the Beast (Pro)"}},{"id":5297,"title":{"id":2369,"name":"JackBot"}},{"id":2709,"title":{"id":4757,"name":"The Lord of the Rings"}},{"id":2766,"title":{"id":2898,"name":"Medieval Madness"}},{"id":3569,"title":{"id":5658,"name":"Metallica (Pro)"}},{"id":5302,"title":{"id":4074,"name":"Skateball"}},{"id":5821,"title":{"id":5769,"name":"Star Trek (Vengeance Premium)"}},{"id":5300,"title":{"id":4695,"name":"Terminator 2: Judgment Day"}},{"id":3571,"title":{"id":5829,"name":"The Walking Dead (Pro)"}},{"id":5301,"title":{"id":5191,"name":"Wheel Of Fortune"}}]},{"id":"college-inn-pub","name":"College Inn Pub","address":"4006 University Way NE","city":"Seattle","postal_code":"98105","latitude":47.6555283,"longitude":-122.31308,"phone":"(206) 547-0997","url":"https://www.thecollegeinnpub.com/","all_ages":false,"num_games":2,"machines":[{"id":5770,"title":{"id":6193,"name":"The Beatles (Diamond Edition) LE"}},{"id":5623,"title":{"id":6150,"name":"Deadpool (Pro)"}}]},{"id":"comet-tavern","name":"Comet Tavern","address":"922 E Pike St","city":"Seattle","postal_code":"98122","latitude":47.6142126,"longitude":-122.3196324,"phone":"206.322.9272","url":"https://www.facebook.com/CometSeattle/","all_ages":false,"num_games":2,"machines":[{"id":3627,"title":{"id":6035,"name":"Aerosmith (Pro)"}},{"id":5267,"title":{"id":2348,"name":"Iron Man"}}]},{"id":"corner-pocket","name":"Corner Pocket","address":"4302 SW Alaska St #204","city":"Seattle","postal_code":"98116","latitude":47.561284,"longitude":-122.387184,"phone":" (206) 933-0320","url":"https://www.facebook.com/Corner-Pocket-244276018985479/","all_ages":false,"num_games":9,"machines":[{"id":5822,"title":{"id":4710,"name":"The Addams Family"}},{"id":5405,"title":{"id":932,"name":"Centaur"}},{"id":5826,"title":{"id":6001,"name":"Ghostbusters (Premium)"}},{"id":5409,"title":{"id":6147,"name":"Iron Maiden Legacy of the Beast (Pro)"}},{"id":5445,"title":{"id":3870,"name":"Scared Stiff"}},{"id":5411,"title":{"id":6047,"name":"Star Wars (Stern Pro)"}},{"id":5823,"title":{"id":6199,"name":"Star Wars The Mandalorian (Pro)"}},{"id":5824,"title":{"id":4627,"name":"Swords of Fury"}},{"id":5825,"title":{"id":5942,"name":"The Walking Dead (Premium)"}}]},{"id":"cozy-inn-tavern","name":"Cozy Inn Tavern","address":"6215 Bothell Way Northeast","city":"Kenmore","postal_code":"98028","latitude":47.7582696,"longitude":-122.2595614,"phone":"(425) 486-4321","url":"https://www.facebook.com/thecozyinntavern/","all_ages":false,"num_games":2,"machines":[{"id":3464,"title":{"id":271,"name":"Attack from Mars"}},{"id":5686,"title":{"id":5659,"name":"Metallica Master of Puppets (Limited Edition)"}}]},{"id":"crave-80s","name":"Crave 80s","address":"8628 36th Ave NE STE100","city":"Marysville","postal_code":"98270","latitude":48.074619,"longitude":-122.182876,"phone":"","url":"https://www.crave80sarcadebar.com/","all_ages":false,"num_games":15,"machines":[{"id":5805,"title":{"id":6004,"name":"Batman (66 Premium)"}},{"id":5801,"title":{"id":532,"name":"Big Guns"}},{"id":5809,"title":{"id":1355,"name":"Diner"}},{"id":5815,"title":{"id":1376,"name":"Doctor Who"}},{"id":5802,"title":{"id":1483,"name":"Eight Ball"}},{"id":5807,"title":{"id":1649,"name":"Firepower"}},{"id":5804,"title":{"id":1864,"name":"Getaway"}},{"id":5812,"title":{"id":6136,"name":"Guardians of the Galaxy (Pro)"}},{"id":5813,"title":{"id":2221,"name":"Hollywood Heat"}},{"id":5803,"title":{"id":6148,"name":"Iron Maiden Legacy Of The Beast (Premium)"}},{"id":5810,"title":{"id":2611,"name":"Laser Ball"}},{"id":5806,"title":{"id":4760,"name":"The Machine: Bride of Pinbot"}},{"id":5814,"title":{"id":3315,"name":"Party Animal"}},{"id":5811,"title":{"id":4769,"name":"The Party Zone"}},{"id":5808,"title":{"id":4226,"name":"Space Invaders"}}]},{"id":"crazy-moose-casino","name":"Crazy Moose Casino","address":"22003 66th Ave W ","city":"Mountlake Terrace","postal_code":"98043","latitude":47.7988106,"longitude":-122.3208991,"phone":"(425) 672-4770","url":"https://mountlakecasino.com/","all_ages":false,"num_games":2,"machines":[{"id":2376,"title":{"id":1578,"name":"Family Guy"}},{"id":2377,"title":{"id":3713,"name":"Riverboat Gambler"}}]},{"id":"crucible-brewing","name":"Crucible Brewing","address":"909 SE Everett Mall Way","city":"Everett ","postal_code":"98208","latitude":47.910633955353,"longitude":-122.219668086908,"phone":"(425) 374-7293","url":"https://www.facebook.com/cruciblebrewingeverett/","all_ages":true,"num_games":3,"machines":[{"id":4735,"title":{"id":5922,"name":"KISS (Stern Premium)"}},{"id":3952,"title":{"id":4784,"name":"The Sopranos"}},{"id":3954,"title":{"id":5483,"name":"X-Men (Pro)"}}]},{"id":"darrell-s-tavern","name":"Darrell's Tavern","address":"18041 Aurora Ave N","city":"Shoreline","postal_code":"98133","latitude":47.7607,"longitude":-122.347,"phone":"(206) 542-6688","url":"http://www.darrellstavern.com/","all_ages":false,"num_games":1,"machines":[{"id":5778,"title":{"id":5923,"name":"KISS (Stern Pro)"}}]},{"id":"dorky-s","name":"Dorky's","address":"754 Pacific Ave","city":"Tacoma","postal_code":"98402","latitude":47.2556144,"longitude":-122.4395191,"phone":"253-627-4156","url":"https://www.dorkysarcade.com","all_ages":true,"num_games":8,"machines":[{"id":3369,"title":{"id":1655,"name":"Fish Tales"}},{"id":3374,"title":{"id":2035,"name":"Guns N' Roses (Data East)"}},{"id":3376,"title":{"id":2334,"name":"Indiana Jones (Williams)"}},{"id":3379,"title":{"id":5923,"name":"KISS (Stern Pro)"}},{"id":3380,"title":{"id":2898,"name":"Medieval Madness"}},{"id":3381,"title":{"id":3870,"name":"Scared Stiff"}},{"id":3384,"title":{"id":4414,"name":"Star Trek: The Next Generation"}},{"id":3388,"title":{"id":5038,"name":"Twilight Zone"}}]},{"id":"eastlake-zoo-tavern","name":"Eastlake Zoo Tavern","address":"2301 Eastlake Ave E","city":"Seattle","postal_code":"98102","latitude":47.6398898,"longitude":-122.3261163,"phone":"(206) 329-3277","url":"https://www.facebook.com/EastlakeZooTavern/","all_ages":false,"num_games":4,"machines":[{"id":5436,"title":{"id":6150,"name":"Deadpool (Pro)"}},{"id":5439,"title":{"id":6147,"name":"Iron Maiden Legacy of the Beast (Pro)"}},{"id":5437,"title":{"id":2472,"name":"Junk Yard"}},{"id":5438,"title":{"id":6047,"name":"Star Wars (Stern Pro)"}}]},{"id":"everett-mall","name":"Everett Mall","address":"1402 SE Everett Mall Way","city":"Everett ","postal_code":"98208","latitude":47.9119834769307,"longitude":-122.214277361943,"phone":"","url":"https://www.shopeverettmall.com/","all_ages":true,"num_games":3,"machines":[{"id":4483,"title":{"id":6102,"name":"Medieval Madness (Remake Standard Edition)"}},{"id":4481,"title":{"id":5658,"name":"Metallica (Pro)"}},{"id":4482,"title":{"id":6157,"name":"Monster Bash (Remake Classic Edition)"}}]},{"id":"family-fun-center","name":"Family Fun Center","address":"7212 220th St Sw","city":"Edmonds","postal_code":"98026","latitude":47.7990782,"longitude":-122.3307336,"phone":"(425) 774-4263","url":"http://www.fun-center.com/public/edmonds","all_ages":true,"num_games":1,"machines":[{"id":1137,"title":{"id":4781,"name":"The Simpsons Pinball Party"}}]},{"id":"firestarter-bar-and-grill","name":"Firestarter Bar and Grill","address":"21008 108th Ave SE","city":"Kent","postal_code":"98031","latitude":47.4138964,"longitude":-122.1956727,"phone":"(253) 854-9464","url":"https://www.facebook.com/Firestarterbarandgrill/","all_ages":false,"num_games":1,"machines":[{"id":4650,"title":{"id":6150,"name":"Deadpool (Pro)"}}]},{"id":"flip-flip-ding-ding","name":"Flip Flip Ding Ding","address":"6012 12th Ave S","city":"Seattle","postal_code":"98108","latitude":47.5488058,"longitude":-122.3169935,"phone":"","url":"https://www.facebook.com/FlipFlipDingDing/","all_ages":false,"num_games":13,"machines":[{"id":4886,"title":{"id":6165,"name":"Alice Cooper's Nightmare Castle"}},{"id":2579,"title":{"id":1483,"name":"Eight Ball"}},{"id":5797,"title":{"id":1649,"name":"Firepower"}},{"id":5798,"title":{"id":5964,"name":"Game of Thrones (Pro)"}},{"id":3753,"title":{"id":5971,"name":"Ghostbusters (Pro)"}},{"id":3411,"title":{"id":6148,"name":"Iron Maiden Legacy Of The Beast (Premium)"}},{"id":4739,"title":{"id":6170,"name":"Jurassic Park (Premium)"}},{"id":2039,"title":{"id":4414,"name":"Star Trek: The Next Generation"}},{"id":4887,"title":{"id":6145,"name":"Total Nuclear Annihilation"}},{"id":5376,"title":{"id":4991,"name":"TRON Legacy"}},{"id":1039,"title":{"id":5038,"name":"Twilight Zone"}},{"id":1370,"title":{"id":5829,"name":"The Walking Dead (Pro)"}},{"id":4363,"title":{"id":6167,"name":"Willy Wonka and the Chocolate Factory - Limited Edition"}}]},{"id":"flying-pie-pizza","name":"Flying Pie Pizza","address":"30 Front Street South","city":"Issaquah","postal_code":"98027","latitude":47.53,"longitude":-122.037,"phone":"(425) 391-2407","url":"http://www.flyingpiepizzeria.com","all_ages":true,"num_games":1,"machines":[{"id":4624,"title":{"id":5483,"name":"X-Men (Pro)"}}]},{"id":"full-tilt-columbia-city","name":"Full Tilt Columbia City","address":"5101 Rainer Ave S","city":"Seattle","postal_code":"98106","latitude":47.5561,"longitude":-122.284,"phone":"206-226-2740","url":"https://www.fulltiltcolumbiacity.com/","all_ages":true,"num_games":5,"machines":[{"id":5446,"title":{"id":5583,"name":"The Avengers (Pro)"}},{"id":4923,"title":{"id":1655,"name":"Fish Tales"}},{"id":5303,"title":{"id":5969,"name":"The Hobbit"}},{"id":5435,"title":{"id":6144,"name":"Houdini Master of Mystery"}},{"id":4187,"title":{"id":2332,"name":"Indiana Jones (Stern)"}}]},{"id":"full-tilt-ice-cream-ballard","name":"Full Tilt Ice Cream Ballard","address":"5453 Leary Ave NW","city":"Seattle","postal_code":"98107","latitude":47.6678168,"longitude":-122.3835094,"phone":"","url":"http://fulltilticecream.com/","all_ages":true,"num_games":10,"machines":[{"id":5326,"title":{"id":4710,"name":"The Addams Family"}},{"id":5328,"title":{"id":430,"name":"Batman (Stern)"}},{"id":5330,"title":{"id":5971,"name":"Ghostbusters (Pro)"}},{"id":5323,"title":{"id":2332,"name":"Indiana Jones (Stern)"}},{"id":5327,"title":{"id":2336,"name":"Indianapolis 500"}},{"id":5321,"title":{"id":2898,"name":"Medieval Madness"}},{"id":5325,"title":{"id":3007,"name":"Monster Bash"}},{"id":5331,"title":{"id":3870,"name":"Scared Stiff"}},{"id":5329,"title":{"id":4781,"name":"The Simpsons Pinball Party"}},{"id":5324,"title":{"id":4991,"name":"TRON Legacy"}}]},{"id":"full-tilt-ice-cream-white-center","name":"Full Tilt Ice Cream White Center","address":"9629 16th Ave SW","city":"Seattle","postal_code":"98106","latitude":47.5164,"longitude":-122.356,"phone":"(206) 767-4811","url":"http://fulltilticecream.com/","all_ages":true,"num_games":4,"machines":[{"id":5332,"title":{"id":5964,"name":"Game of Thrones (Pro)"}},{"id":5773,"title":{"id":2336,"name":"Indianapolis 500"}},{"id":5333,"title":{"id":6145,"name":"Total Nuclear Annihilation"}},{"id":5774,"title":{"id":6168,"name":"Willy Wonka and the Chocolate Factory - Standard Edition"}}]},{"id":"fuzzy-naval-tavern","name":"Fuzzy Naval Tavern","address":"416 Naval Ave","city":"Bremerton","postal_code":"98337","latitude":47.5663888372093,"longitude":-122.646208906977,"phone":"(360) 782-5487","url":"https://www.facebook.com/navelthegreat/","all_ages":false,"num_games":1,"machines":[{"id":4097,"title":{"id":2332,"name":"Indiana Jones (Stern)"}}]},{"id":"geaux-brewing","name":"Geaux Brewing","address":"425 E Main St","city":"Auburn","postal_code":"98002","latitude":47.3082013,"longitude":-122.2232925,"phone":"(253) 397-3939","url":"http://geauxbrewing.com/","all_ages":true,"num_games":2,"machines":[{"id":4116,"title":{"id":4725,"name":"The Champion Pub"}},{"id":4117,"title":{"id":6136,"name":"Guardians of the Galaxy (Pro)"}}]},{"id":"getaway-tavern","name":"Getaway Tavern","address":"24309 56th Ave W","city":"Mountlake Terrace","postal_code":"98043","latitude":47.7783419,"longitude":-122.3078868,"phone":"(425) 771-8478","url":"","all_ages":false,"num_games":3,"machines":[{"id":5750,"title":{"id":6048,"name":"Attack From Mars (Remake Limited Edition)"}},{"id":5669,"title":{"id":6182,"name":"The Avengers Infinity Quest (Premium)"}},{"id":5751,"title":{"id":6200,"name":"Monster Bash (Remake Limited Edition)"}}]},{"id":"golden-mum","name":"Golden Mum","address":"32 NE Silver Pine Dr","city":"Bremerton","postal_code":"98311","latitude":47.6332629,"longitude":-122.6493823,"phone":"(360) 692-3377","url":"http://goldenmum.webs.com/","all_ages":false,"num_games":2,"machines":[{"id":4941,"title":{"id":5829,"name":"The Walking Dead (Pro)"}},{"id":4939,"title":{"id":5191,"name":"Wheel Of Fortune"}}]},{"id":"golden-rule-tattoo","name":"Golden Rule Tattoo","address":"10406 Silverdale Way Northwest","city":"Silverdale","postal_code":"98383","latitude":47.657559,"longitude":-122.686958,"phone":"360-692-6900","url":"https://www.facebook.com/GoldenRuleTattoos/","all_ages":false,"num_games":1,"machines":[{"id":4583,"title":{"id":4860,"name":"Title Fight"}}]},{"id":"gorman-winery-hollywood-hill-tasting-room","name":"Gorman Winery Hollywood Hill Tasting Room","address":"14405 148th Ave NE","city":"Woodinville","postal_code":"98072","latitude":47.731046003816836,"longitude":-122.14244322028578,"phone":"(206) 351-0719","url":"http://www.gormanwinery.com/","all_ages":false,"num_games":1,"machines":[{"id":4625,"title":{"id":5377,"name":"AC/DC (Pro)"}}]},{"id":"great-state-burger","name":"Great State Burger","address":"5411 Ballard Ave NW","city":"Seattle","postal_code":"98107","latitude":47.6677273,"longitude":-122.385196,"phone":"","url":"https://greatstateburger.com/","all_ages":true,"num_games":3,"machines":[{"id":4910,"title":{"id":4757,"name":"The Lord of the Rings"}},{"id":4911,"title":{"id":3006,"name":"Monopoly"}},{"id":4909,"title":{"id":4781,"name":"The Simpsons Pinball Party"}}]},{"id":"ground-kontrol","name":"Ground Kontrol","address":"511 NW Couch Street","city":"Portland","postal_code":"97209","latitude":45.5239255,"longitude":-122.6758529,"phone":"503-796-9364","url":"http://www.groundkontrol.com/","all_ages":false,"num_games":40,"machines":[{"id":4327,"title":{"id":5377,"name":"AC/DC (Pro)"}},{"id":673,"title":{"id":4710,"name":"The Addams Family"}},{"id":4303,"title":{"id":271,"name":"Attack from Mars"}},{"id":4321,"title":{"id":648,"name":"Black Knight 2000"}},{"id":4314,"title":{"id":6164,"name":"Black Knight: Sword of Rage (Limited Edition)"}},{"id":4309,"title":{"id":4725,"name":"The Champion Pub"}},{"id":4316,"title":{"id":6150,"name":"Deadpool (Pro)"}},{"id":4306,"title":{"id":1376,"name":"Doctor Who"}},{"id":4322,"title":{"id":1429,"name":"Dr. Dude"}},{"id":4324,"title":{"id":6079,"name":"Eight Ball Champ"}},{"id":4317,"title":{"id":1817,"name":"Funhouse"}},{"id":2427,"title":{"id":5964,"name":"Game of Thrones (Pro)"}},{"id":4329,"title":{"id":6136,"name":"Guardians of the Galaxy (Pro)"}},{"id":4318,"title":{"id":2084,"name":"Haunted House"}},{"id":2428,"title":{"id":6030,"name":"The Hobbit (Limited Edition)"}},{"id":686,"title":{"id":2334,"name":"Indiana Jones (Williams)"}},{"id":4325,"title":{"id":6147,"name":"Iron Maiden Legacy of the Beast (Pro)"}},{"id":4307,"title":{"id":2439,"name":"Judge Dredd"}},{"id":1790,"title":{"id":5922,"name":"KISS (Stern Premium)"}},{"id":4334,"title":{"id":4757,"name":"The Lord of the Rings"}},{"id":4326,"title":{"id":5658,"name":"Metallica (Pro)"}},{"id":2283,"title":{"id":3007,"name":"Monster Bash"}},{"id":4310,"title":{"id":3151,"name":"No Good Gofers"}},{"id":4323,"title":{"id":3389,"name":"Pinball Magic"}},{"id":4312,"title":{"id":3411,"name":"Pirates of the Caribbean (Stern)"}},{"id":4320,"title":{"id":3870,"name":"Scared Stiff"}},{"id":676,"title":{"id":4781,"name":"The Simpsons Pinball Party"}},{"id":4315,"title":{"id":4211,"name":"South Park"}},{"id":4313,"title":{"id":4288,"name":"Spider-Man"}},{"id":4333,"title":{"id":5600,"name":"Star Trek (Starfleet Pro Stern)"}},{"id":3244,"title":{"id":6047,"name":"Star Wars (Stern Pro)"}},{"id":4319,"title":{"id":4646,"name":"Tales from the Crypt"}},{"id":4305,"title":{"id":4647,"name":"Tales of the Arabian Nights"}},{"id":4311,"title":{"id":4696,"name":"Terminator 3: Rise of the Machines"}},{"id":4304,"title":{"id":4794,"name":"Theatre of Magic"}},{"id":4332,"title":{"id":6145,"name":"Total Nuclear Annihilation"}},{"id":2425,"title":{"id":5375,"name":"TRON Legacy LE"}},{"id":4330,"title":{"id":5038,"name":"Twilight Zone"}},{"id":1792,"title":{"id":5829,"name":"The Walking Dead (Pro)"}},{"id":4308,"title":{"id":5221,"name":"White Water"}}]},{"id":"hale-s-ale-barrelhouse","name":"Hale's Ale Barrelhouse","address":"1509 North Wycoff Avenue","city":"Bremerton","postal_code":"98312","latitude":47.5750115,"longitude":-122.6546691,"phone":"(360) 932-3502","url":"http://halesbarrelhouse.com/","all_ages":false,"num_games":3,"machines":[{"id":4563,"title":{"id":1224,"name":"Cyclone"}},{"id":4564,"title":{"id":1645,"name":"Fireball Classic"}},{"id":3012,"title":{"id":1989,"name":"Grand Prix (Williams SS)"}}]},{"id":"hale-s-ales-brewery","name":"Hale's Ales Brewery","address":"4301 Leary Way NW","city":"Seattle","postal_code":"98107","latitude":47.6592451,"longitude":-122.36559094051,"phone":"(206) 706-1572","url":"https://www.facebook.com/halesbrewery/","all_ages":true,"num_games":5,"machines":[{"id":5819,"title":{"id":511,"name":"Big Buck Hunter Pro"}},{"id":5754,"title":{"id":4751,"name":"The Incredible Hulk"}},{"id":5752,"title":{"id":3510,"name":"Popeye Saves the Earth"}},{"id":5753,"title":{"id":4226,"name":"Space Invaders"}},{"id":5818,"title":{"id":5482,"name":"X-Men Magneto LE"}}]},{"id":"half-pint-pizza-pub","name":"Half Pint Pizza Pub","address":"2710 6th Ave","city":"Tacoma","postal_code":"98406","latitude":47.25519999999999,"longitude":-122.472006,"phone":"(253) 272-2531","url":"","all_ages":false,"num_games":7,"machines":[{"id":4432,"title":{"id":6164,"name":"Black Knight: Sword of Rage (Limited Edition)"}},{"id":4607,"title":{"id":4737,"name":"The Flintstones"}},{"id":5400,"title":{"id":6189,"name":"Guns N' Roses Not In This Lifetime (Standard Edition)"}},{"id":5311,"title":{"id":6186,"name":"Led Zeppelin (Limited Edition)"}},{"id":5312,"title":{"id":6176,"name":"Rick And Morty"}},{"id":5314,"title":{"id":4781,"name":"The Simpsons Pinball Party"}},{"id":5313,"title":{"id":6178,"name":"Teenage Mutant Ninja Turtles (Stern Pro)"}}]},{"id":"hannah-s-bar-grille","name":"Hannah's Bar \u0026 Grille","address":"23 5th Ave SW","city":"Olympia","postal_code":"98501","latitude":47.0435851,"longitude":-122.9109749,"phone":"(360) 357-9890","url":"https://www.facebook.com/Hannahsbarandgrille/","all_ages":false,"num_games":1,"machines":[{"id":3960,"title":{"id":5964,"name":"Game of Thrones (Pro)"}}]},{"id":"hellbent-brewing-company","name":"Hellbent Brewing Company","address":"13035 Lake City Way NE","city":"Seattle","postal_code":"98125","latitude":47.7239477,"longitude":-122.2932026,"phone":"(206) 361-3707","url":"http://www.hellbentbrewingcompany.com/","all_ages":false,"num_games":8,"machines":[{"id":5350,"title":{"id":1376,"name":"Doctor Who"}},{"id":5353,"title":{"id":1680,"name":"Flash Gordon"}},{"id":5352,"title":{"id":6147,"name":"Iron Maiden Legacy of the Beast (Pro)"}},{"id":5351,"title":{"id":5658,"name":"Metallica (Pro)"}},{"id":5348,"title":{"id":4784,"name":"The Sopranos"}},{"id":5354,"title":{"id":4426,"name":"Stargate"}},{"id":5349,"title":{"id":4846,"name":"Time Warp"}},{"id":5347,"title":{"id":5316,"name":"WWF Royal Rumble"}}]},{"id":"hillside-bar","name":"Hillside Bar","address":"1520 E Olive Way","city":"Seattle","postal_code":"98122","latitude":47.6182914,"longitude":-122.3260236,"phone":"(206) 324-0154","url":"https://www.facebook.com/The-Hillside-Bar-362561033827156/","all_ages":false,"num_games":3,"machines":[{"id":4822,"title":{"id":4744,"name":"The Getaway: High Speed II"}},{"id":4821,"title":{"id":4288,"name":"Spider-Man"}},{"id":3526,"title":{"id":5484,"name":"X-Men Wolverine LE"}}]},{"id":"home-plate-tavern","name":"Home Plate Tavern","address":"1042 S Sprague Ave","city":"Tacoma","postal_code":"98405","latitude":47.25141528571429,"longitude":-122.46308314285714,"phone":" (253) 272-9713","url":"https://home-plate-tavern.business.site/","all_ages":false,"num_games":1,"machines":[{"id":5676,"title":{"id":6169,"name":"Jurassic Park (Stern Pro)"}}]},{"id":"hooverville","name":"Hooverville","address":"1721 1st Ave S ","city":"Seattle","postal_code":"98134","latitude":47.587432,"longitude":-122.334701,"phone":"(206) 264-2428","url":"http://www.hoovervillebar.com/","all_ages":false,"num_games":3,"machines":[{"id":5403,"title":{"id":6194,"name":"The Beatles (Gold Edition)"}},{"id":5401,"title":{"id":6137,"name":"Guardians of the Galaxy (Limited Edition)"}},{"id":5402,"title":{"id":5807,"name":"Mustang (Limited Edition)"}}]},{"id":"hounds-tooth-public-house","name":"Hounds Tooth Public House","address":"8551 Greenwood Ave N","city":"Seattle","postal_code":"98103","latitude":47.6923048,"longitude":-122.3555406,"phone":"Phone number (206) 403-1464","url":"https://www.facebook.com/houndstooth206/","all_ages":false,"num_games":8,"machines":[{"id":4879,"title":{"id":6035,"name":"Aerosmith (Pro)"}},{"id":5765,"title":{"id":4725,"name":"The Champion Pub"}},{"id":4865,"title":{"id":5498,"name":"Charlie's Angels"}},{"id":4882,"title":{"id":5971,"name":"Ghostbusters (Pro)"}},{"id":5337,"title":{"id":6177,"name":"Hot Wheels"}},{"id":5767,"title":{"id":3088,"name":"NBA Fastbreak"}},{"id":5766,"title":{"id":3150,"name":"No Fear: Dangerous Sports"}},{"id":5768,"title":{"id":6199,"name":"Star Wars The Mandalorian (Pro)"}}]},{"id":"jake-s-on-4th","name":"Jake's On 4th","address":"311 4th Ave E","city":"Olympia","postal_code":"98501","latitude":47.0450070380441,"longitude":-122.898913913036,"phone":"(360) 956-3247","url":"https://www.facebook.com/Olympiagaybar/","all_ages":false,"num_games":1,"machines":[{"id":3961,"title":{"id":5971,"name":"Ghostbusters (Pro)"}}]},{"id":"joe-s-bar-and-grill","name":"Joe's Bar and Grill","address":"500 S King St","city":"Seattle","postal_code":"98104","latitude":47.5985344,"longitude":-122.3275073,"phone":"(206) 223-9266","url":"https://www.facebook.com/pages/Joes-Bar-n-Grill/178089275584470","all_ages":false,"num_games":1,"machines":[{"id":5828,"title":{"id":5964,"name":"Game of Thrones (Pro)"}}]},{"id":"jules-maes-saloon","name":"Jules Maes Saloon","address":"5919 Airport Way S","city":"Seattle","postal_code":"98108","latitude":47.5496126,"longitude":-122.3175544,"phone":"(206) 420-7715","url":"https://www.julesmaessaloon.com/","all_ages":false,"num_games":4,"machines":[{"id":5695,"title":{"id":6004,"name":"Batman (66 Premium)"}},{"id":5696,"title":{"id":4760,"name":"The Machine: Bride of Pinbot"}},{"id":5697,"title":{"id":3006,"name":"Monopoly"}},{"id":5698,"title":{"id":3150,"name":"No Fear: Dangerous Sports"}}]},{"id":"jupiter-bar","name":"Jupiter Bar","address":"2126 2nd Ave Suite A","city":"Seattle","postal_code":"98121","latitude":47.6131713,"longitude":-122.3438492,"phone":"(206) 448-2043","url":"https://www.facebook.com/jupiterbarseattle/","all_ages":false,"num_games":30,"machines":[{"id":2744,"title":{"id":5723,"name":"AC/DC (LUCI Premium)"}},{"id":2895,"title":{"id":4710,"name":"The Addams Family"}},{"id":2893,"title":{"id":271,"name":"Attack from Mars"}},{"id":4274,"title":{"id":6162,"name":"Black Knight: Sword of Rage (Pro)"}},{"id":4025,"title":{"id":755,"name":"Bram Stoker's Dracula"}},{"id":2737,"title":{"id":1521,"name":"Embryon"}},{"id":2894,"title":{"id":1655,"name":"Fish Tales"}},{"id":2739,"title":{"id":1824,"name":"Future Spa"}},{"id":2890,"title":{"id":5964,"name":"Game of Thrones (Pro)"}},{"id":2889,"title":{"id":4744,"name":"The Getaway: High Speed II"}},{"id":3313,"title":{"id":2072,"name":"Harlem Globetrotters On Tour"}},{"id":2735,"title":{"id":2282,"name":"Hotdoggin'"}},{"id":3546,"title":{"id":6148,"name":"Iron Maiden Legacy Of The Beast (Premium)"}},{"id":4399,"title":{"id":6169,"name":"Jurassic Park (Stern Pro)"}},{"id":2896,"title":{"id":2898,"name":"Medieval Madness"}},{"id":2755,"title":{"id":5658,"name":"Metallica (Pro)"}},{"id":4033,"title":{"id":6157,"name":"Monster Bash (Remake Classic Edition)"}},{"id":2738,"title":{"id":3302,"name":"Paragon"}},{"id":4281,"title":{"id":3411,"name":"Pirates of the Caribbean (Stern)"}},{"id":4829,"title":{"id":4155,"name":"SlugFest (1991 Williams)"}},{"id":3545,"title":{"id":4784,"name":"The Sopranos"}},{"id":2736,"title":{"id":4226,"name":"Space Invaders"}},{"id":5364,"title":{"id":4243,"name":"Space Shuttle (Williams)"}},{"id":2892,"title":{"id":5991,"name":"Spider-Man (Vault Edition)"}},{"id":4825,"title":{"id":4412,"name":"Star Trek (Bally)"}},{"id":4076,"title":{"id":5600,"name":"Star Trek (Starfleet Pro Stern)"}},{"id":4599,"title":{"id":6174,"name":"Stranger Things (Pro)"}},{"id":2753,"title":{"id":5038,"name":"Twilight Zone"}},{"id":2757,"title":{"id":5829,"name":"The Walking Dead (Pro)"}},{"id":4873,"title":{"id":5301,"name":"World Cup Soccer"}}]},{"id":"just-left-pub-grill","name":"Just Left Pub \u0026 Grill","address":"4308 198th St Sw","city":"Lynnwood","postal_code":"98036","latitude":47.819077,"longitude":-122.2910211,"phone":"(425) 776-7379","url":"","all_ages":false,"num_games":1,"machines":[{"id":3966,"title":{"id":3006,"name":"Monopoly"}}]},{"id":"kitsap-mall","name":"Kitsap Mall","address":"10315 Silverdale Way NW","city":"Silverdale","postal_code":"98383","latitude":47.6580942,"longitude":-122.6897332,"phone":"(360) 698-2555","url":"https://www.shopkitsapmall.com/","all_ages":true,"num_games":3,"machines":[{"id":4400,"title":{"id":6010,"name":"Batman (66 Limited Edition)"}},{"id":3606,"title":{"id":4781,"name":"The Simpsons Pinball Party"}},{"id":3605,"title":{"id":6047,"name":"Star Wars (Stern Pro)"}}]},{"id":"let-s-play-cafe","name":"Let's Play Cafe","address":"214 N Lewis St.","city":"Monroe","postal_code":"98272","latitude":47.8575234,"longitude":-121.9712382,"phone":"(360) 243-3683","url":"http://letsplaycafe.com/","all_ages":true,"num_games":12,"machines":[{"id":1224,"title":{"id":647,"name":"Black Knight"}},{"id":4664,"title":{"id":6153,"name":"Deadpool (Premium)"}},{"id":2733,"title":{"id":6001,"name":"Ghostbusters (Premium)"}},{"id":1226,"title":{"id":4760,"name":"The Machine: Bride of Pinbot"}},{"id":1405,"title":{"id":3402,"name":"PINBOT"}},{"id":2731,"title":{"id":3505,"name":"Pool Sharks"}},{"id":1220,"title":{"id":4780,"name":"The Simpsons"}},{"id":1227,"title":{"id":4211,"name":"South Park"}},{"id":4665,"title":{"id":4288,"name":"Spider-Man"}},{"id":1404,"title":{"id":5600,"name":"Star Trek (Starfleet Pro Stern)"}},{"id":4666,"title":{"id":4414,"name":"Star Trek: The Next Generation"}},{"id":1222,"title":{"id":5038,"name":"Twilight Zone"}}]},{"id":"lock-keel","name":"Lock \u0026 Keel","address":"5144 Ballard Ave NW","city":"Seattle","postal_code":"98107","latitude":47.6655722,"longitude":-122.3818158,"phone":"(206) 781-8023","url":"https://www.facebook.com/LockandKeel/","all_ages":false,"num_games":3,"machines":[{"id":4501,"title":{"id":4710,"name":"The Addams Family"}},{"id":4502,"title":{"id":271,"name":"Attack from Mars"}},{"id":4500,"title":{"id":3007,"name":"Monster Bash"}}]},{"id":"lost-woods-brewery","name":"Lost Woods Brewery","address":"19944 S Prairie Rd E","city":"Bonney Lake","postal_code":"98391","latitude":47.16842734946324,"longitude":-122.16356607543726,"phone":"(253) 750-4040","url":"https://www.lostwoodsbrewery.com/#/","all_ages":false,"num_games":2,"machines":[{"id":4631,"title":{"id":6136,"name":"Guardians of the Galaxy (Pro)"}},{"id":4632,"title":{"id":5301,"name":"World Cup Soccer"}}]},{"id":"lucky-13-saloon","name":"Lucky 13 Saloon","address":"8421 State Ave","city":"Marysville","postal_code":"98270","latitude":48.0727884,"longitude":-122.1759596,"phone":"(360) 653-2022","url":"https://www.facebook.com/OfficialLucky13Saloon","all_ages":false,"num_games":1,"machines":[{"id":2667,"title":{"id":2075,"name":"Harley-Davidson (Sega)"}}]},{"id":"lucky-7-bar-and-grill","name":"Lucky 7 Bar and Grill ","address":"12715 NE 124th St","city":"Kirkland","postal_code":"98034","latitude":47.7098954,"longitude":-122.1709043,"phone":"(425) 821-7717","url":"http://www.lucky7barandgrill.com/","all_ages":false,"num_games":1,"machines":[{"id":4439,"title":{"id":6136,"name":"Guardians of the Galaxy (Pro)"}}]},{"id":"lucky-liquor","name":"Lucky Liquor","address":"10325 E Marginal Way S","city":"Tukwila","postal_code":"98168","latitude":47.5104936,"longitude":-122.293012,"phone":"(206) 673-4081","url":"https://www.facebook.com/luckyliquortavern","all_ages":true,"num_games":8,"machines":[{"id":5507,"title":{"id":1655,"name":"Fish Tales"}},{"id":2197,"title":{"id":1817,"name":"Funhouse"}},{"id":2799,"title":{"id":3007,"name":"Monster Bash"}},{"id":5800,"title":{"id":3411,"name":"Pirates of the Caribbean (Stern)"}},{"id":4823,"title":{"id":5719,"name":"Star Trek (Enterprise LE Stern)"}},{"id":2228,"title":{"id":4794,"name":"Theatre of Magic"}},{"id":5509,"title":{"id":6145,"name":"Total Nuclear Annihilation"}},{"id":3537,"title":{"id":5853,"name":"The Walking Dead (Limited Edition)"}}]},{"id":"lucky-vintage","name":"Lucky Vintage","address":"5424 Ballard Ave NW","city":"Seattle","postal_code":"98107","latitude":47.66839419999999,"longitude":-122.3854961,"phone":"","url":"http://luckyvintageseattle.virb.com/home","all_ages":true,"num_games":1,"machines":[{"id":1449,"title":{"id":1381,"name":"Dolly Parton"}}]},{"id":"madison-pub","name":"Madison Pub","address":"1315 E Madison St","city":"Seattle","postal_code":"98122","latitude":47.6135,"longitude":-122.315,"phone":"(206) 325-6537","url":"http://www.madisonpub.com/","all_ages":false,"num_games":3,"machines":[{"id":1929,"title":{"id":5971,"name":"Ghostbusters (Pro)"}},{"id":3629,"title":{"id":6136,"name":"Guardians of the Galaxy (Pro)"}},{"id":2630,"title":{"id":6047,"name":"Star Wars (Stern Pro)"}}]},{"id":"magoo-s-annex","name":"Magoo's Annex","address":"2710 N 21st St","city":"Tacoma","postal_code":"98406","latitude":47.2673751,"longitude":-122.47213,"phone":"(253) 759-0467","url":"https://www.facebook.com/MagoosAnnex/","all_ages":false,"num_games":1,"machines":[{"id":4552,"title":{"id":4794,"name":"Theatre of Magic"}}]},{"id":"malarky-s-sports-grill","name":"Malarky's Sports Grill","address":"1025 NW Gilman Blvd","city":"Issaquah","postal_code":"98027","latitude":47.5443372,"longitude":-122.0532816,"phone":"425) 392-6356","url":"http://malarkys.club/","all_ages":false,"num_games":1,"machines":[{"id":3326,"title":{"id":6047,"name":"Star Wars (Stern Pro)"}}]},{"id":"manchester-pub","name":"Manchester Pub","address":"2350 Colchester Dr E","city":"Port Orchard","postal_code":"98366","latitude":47.5538653,"longitude":-122.5450002,"phone":"(360) 871-2205","url":"https://www.facebook.com/Manchester-Pub-Bar-121493707871304/","all_ages":false,"num_games":1,"machines":[{"id":3697,"title":{"id":5191,"name":"Wheel Of Fortune"}}]},{"id":"mcmenamin-s-anderson-school-the-woodshop","name":"McMenamin's Anderson School/The Woodshop","address":"18607 Bothell Way NE","city":"Bothell ","postal_code":"98011","latitude":47.7626016,"longitude":-122.208194,"phone":"(425) 398-0122","url":"http://www.mcmenamins.com/2074-anderson-school-woodshop","all_ages":false,"num_games":5,"machines":[{"id":1917,"title":{"id":5923,"name":"KISS (Stern Pro)"}},{"id":1920,"title":{"id":5756,"name":"Mustang (Pro Stern)"}},{"id":1918,"title":{"id":5600,"name":"Star Trek (Starfleet Pro Stern)"}},{"id":4653,"title":{"id":6047,"name":"Star Wars (Stern Pro)"}},{"id":1919,"title":{"id":5694,"name":"The Wizard of Oz"}}]},{"id":"mcmenamins-elks-temple","name":"McMenamins Elks Temple","address":"565 Broadway","city":"Tacoma","postal_code":"98402","latitude":47.258048,"longitude":-122.440909,"phone":"(425) 219-4370","url":"https://www.mcmenamins.com/elks-temple","all_ages":false,"num_games":4,"machines":[{"id":4137,"title":{"id":6150,"name":"Deadpool (Pro)"}},{"id":4138,"title":{"id":6147,"name":"Iron Maiden Legacy of the Beast (Pro)"}},{"id":4139,"title":{"id":6155,"name":"The Munsters (Pro)"}},{"id":4136,"title":{"id":6047,"name":"Star Wars (Stern Pro)"}}]},{"id":"mcmenamins-spar-cafe","name":"McMenamins Spar Café","address":"114 4th Ave E","city":"Olympia","postal_code":"98501","latitude":47.0449997425281,"longitude":-122.901376762898,"phone":"(360) 357-6444","url":"https://www.mcmenamins.com/","all_ages":false,"num_games":2,"machines":[{"id":3956,"title":{"id":4991,"name":"TRON Legacy"}},{"id":3955,"title":{"id":5483,"name":"X-Men (Pro)"}}]},{"id":"meconi-s-pub-eatery","name":"Meconi's Pub \u0026 Eatery","address":"709 Pacific Ave","city":"Tacoma","postal_code":"98402","latitude":47.256924,"longitude":-122.438988,"phone":"","url":"","all_ages":false,"num_games":2,"machines":[{"id":2643,"title":{"id":5583,"name":"The Avengers (Pro)"}},{"id":2642,"title":{"id":5658,"name":"Metallica (Pro)"}}]},{"id":"monica-s-social-bar","name":"Monica's Social Bar","address":"818 6th St","city":"Bremerton","postal_code":"98337","latitude":47.56741,"longitude":-122.630619454545,"phone":"(360) 377-4386","url":"https://www.facebook.com/pages/Monicas-Social-Club/192314204130987","all_ages":false,"num_games":3,"machines":[{"id":4920,"title":{"id":1312,"name":"Demolition Man"}},{"id":4919,"title":{"id":6177,"name":"Hot Wheels"}},{"id":4921,"title":{"id":4784,"name":"The Sopranos"}}]},{"id":"narrows-plaza-bowl","name":"Narrows Plaza Bowl","address":"2200 Mildred St. W","city":"University Place","postal_code":"98466","latitude":47.2411317,"longitude":-122.5284181,"phone":"","url":"","all_ages":true,"num_games":1,"machines":[{"id":2265,"title":{"id":3150,"name":"No Fear: Dangerous Sports"}}]},{"id":"narwhal-unicorn","name":"Narwhal/Unicorn","address":"1118 East Pike Street","city":"Seattle","postal_code":"98122","latitude":47.614307,"longitude":-122.317368,"phone":"(206) 325-6492","url":"http://unicornseattle.com/","all_ages":false,"num_games":10,"machines":[{"id":5465,"title":{"id":4710,"name":"The Addams Family"}},{"id":5471,"title":{"id":6165,"name":"Alice Cooper's Nightmare Castle"}},{"id":5472,"title":{"id":304,"name":"Baby Pac-Man"}},{"id":5378,"title":{"id":6161,"name":"Deadpool (LE)"}},{"id":5467,"title":{"id":5977,"name":"Ghostbusters (Limited Edition)"}},{"id":5468,"title":{"id":6148,"name":"Iron Maiden Legacy Of The Beast (Premium)"}},{"id":5464,"title":{"id":2898,"name":"Medieval Madness"}},{"id":5470,"title":{"id":6049,"name":"Star Wars (Stern Limited Edition)"}},{"id":5506,"title":{"id":5038,"name":"Twilight Zone"}},{"id":5469,"title":{"id":5221,"name":"White Water"}}]},{"id":"new-way-vapors-lounge-and-restaurant","name":"New Way Vapors lounge and restaurant","address":"1551 piperberry way se suite 101","city":"Port Orchard","postal_code":"98366","latitude":47.50704959999999,"longitude":-122.6319005,"phone":"360-602-0050","url":"https://www.facebook.com/newwayvapors/","all_ages":true,"num_games":2,"machines":[{"id":3363,"title":{"id":3006,"name":"Monopoly"}},{"id":3857,"title":{"id":4793,"name":"The X Files"}}]},{"id":"next-level-pinball-museum","name":"Next Level Pinball Museum","address":"1458 NE 25th Ave","city":"Hillsboro","postal_code":"97124","latitude":45.535833749999995,"longitude":-122.95601007497734,"phone":"503.608.2605","url":"http://nextlevelpinballmuseum.com/","all_ages":true,"num_games":238,"machines":[{"id":5023,"title":{"id":29,"name":"24"}},{"id":5024,"title":{"id":5431,"name":"AC/DC (Premium)"}},{"id":5025,"title":{"id":109,"name":"Adventures of Rocky and Bullwinkle and Friends"}},{"id":5026,"title":{"id":6055,"name":"Aerosmith (Limited Edition)"}},{"id":5027,"title":{"id":126,"name":"Airborne"}},{"id":5028,"title":{"id":146,"name":"Ali"}},{"id":5029,"title":{"id":6165,"name":"Alice Cooper's Nightmare Castle"}},{"id":5030,"title":{"id":151,"name":"Alien Poker"}},{"id":5031,"title":{"id":5784,"name":"America's Most Haunted"}},{"id":5032,"title":{"id":210,"name":"Apollo 13"}},{"id":5033,"title":{"id":264,"name":"Atlantis (Bally)"}},{"id":5034,"title":{"id":6048,"name":"Attack From Mars (Remake Limited Edition)"}},{"id":5035,"title":{"id":277,"name":"Austin Powers"}},{"id":5036,"title":{"id":2377,"name":"Avatar"}},{"id":5037,"title":{"id":5691,"name":"The Avengers Hulk (Limited Edition)"}},{"id":5038,"title":{"id":307,"name":"Back to the Future"}},{"id":5039,"title":{"id":309,"name":"Bad Cats"}},{"id":5040,"title":{"id":4716,"name":"The Bally Game Show"}},{"id":5041,"title":{"id":391,"name":"Banzai Run"}},{"id":5042,"title":{"id":392,"name":"Barb Wire"}},{"id":5264,"title":{"id":413,"name":"Baseball (Gottlieb 1970)"}},{"id":5045,"title":{"id":6004,"name":"Batman (66 Premium)"}},{"id":5044,"title":{"id":431,"name":"Batman (Data East)"}},{"id":5046,"title":{"id":433,"name":"Batman Forever"}},{"id":5047,"title":{"id":445,"name":"Baywatch"}},{"id":5048,"title":{"id":6194,"name":"The Beatles (Gold Edition)"}},{"id":5049,"title":{"id":477,"name":"Bell Ringer"}},{"id":5050,"title":{"id":511,"name":"Big Buck Hunter Pro"}},{"id":5051,"title":{"id":532,"name":"Big Guns"}},{"id":5052,"title":{"id":648,"name":"Black Knight 2000"}},{"id":5053,"title":{"id":6164,"name":"Black Knight: Sword of Rage (Limited Edition)"}},{"id":5054,"title":{"id":656,"name":"Black Rose"}},{"id":5055,"title":{"id":662,"name":"Blackout"}},{"id":5056,"title":{"id":676,"name":"Blue Chip"}},{"id":5057,"title":{"id":3523,"name":"Bobby Orr Power Play"}},{"id":5058,"title":{"id":734,"name":"Bounty Hunter"}},{"id":5059,"title":{"id":755,"name":"Bram Stoker's Dracula"}},{"id":5060,"title":{"id":760,"name":"Breakshot"}},{"id":5061,"title":{"id":779,"name":"Bronco (Gottlieb 1977)"}},{"id":5062,"title":{"id":871,"name":"Capt. Fantastic and The Brown Dirt Cowboy"}},{"id":5064,"title":{"id":4725,"name":"The Champion Pub"}},{"id":5065,"title":{"id":5498,"name":"Charlie's Angels"}},{"id":5066,"title":{"id":1031,"name":"Cirqus Voltaire"}},{"id":5067,"title":{"id":1136,"name":"Corvette"}},{"id":5063,"title":{"id":1163,"name":"Cowboy"}},{"id":5068,"title":{"id":1175,"name":"Creature from the Black Lagoon"}},{"id":5069,"title":{"id":1209,"name":"CSI"}},{"id":5070,"title":{"id":1213,"name":"Cue Ball Wizard"}},{"id":5071,"title":{"id":1224,"name":"Cyclone"}},{"id":5072,"title":{"id":1247,"name":"Dale Jr."}},{"id":5073,"title":{"id":6161,"name":"Deadpool (LE)"}},{"id":5074,"title":{"id":1312,"name":"Demolition Man"}},{"id":5075,"title":{"id":1355,"name":"Diner"}},{"id":5076,"title":{"id":1360,"name":"Dirty Harry"}},{"id":5077,"title":{"id":1376,"name":"Doctor Who"}},{"id":5078,"title":{"id":6078,"name":"Domino's"}},{"id":5079,"title":{"id":1429,"name":"Dr. Dude"}},{"id":5080,"title":{"id":1484,"name":"Eight Ball Champ"}},{"id":5081,"title":{"id":1487,"name":"Eight Ball Deluxe (1984 Bally Midway)"}},{"id":5082,"title":{"id":1514,"name":"Elektra"}},{"id":5083,"title":{"id":1519,"name":"Elvira and the Party Monsters"}},{"id":5084,"title":{"id":6172,"name":"Elvira’s House of Horrors (Premium)"}},{"id":5085,"title":{"id":1520,"name":"Elvis"}},{"id":5086,"title":{"id":1560,"name":"F-14 Tomcat"}},{"id":5087,"title":{"id":1639,"name":"Fire!"}},{"id":5088,"title":{"id":1642,"name":"Fireball"}},{"id":5089,"title":{"id":1646,"name":"Fireball II"}},{"id":5090,"title":{"id":1649,"name":"Firepower"}},{"id":5091,"title":{"id":1650,"name":"Firepower II"}},{"id":5092,"title":{"id":1655,"name":"Fish Tales"}},{"id":5093,"title":{"id":1671,"name":"Flash"}},{"id":5094,"title":{"id":1680,"name":"Flash Gordon"}},{"id":5095,"title":{"id":4737,"name":"The Flintstones"}},{"id":5096,"title":{"id":1710,"name":"Flipper Football"}},{"id":5097,"title":{"id":5953,"name":"Full Throttle (Standard Edition)"}},{"id":5098,"title":{"id":1809,"name":"Fun Land"}},{"id":5099,"title":{"id":1834,"name":"Galaxy"}},{"id":5100,"title":{"id":5965,"name":"Game of Thrones (Premium)"}},{"id":5102,"title":{"id":1861,"name":"Genesis (Gottlieb)"}},{"id":5101,"title":{"id":1862,"name":"Genie"}},{"id":5103,"title":{"id":4744,"name":"The Getaway: High Speed II"}},{"id":5104,"title":{"id":5977,"name":"Ghostbusters (Limited Edition)"}},{"id":5105,"title":{"id":1870,"name":"Gilligan's Island"}},{"id":5106,"title":{"id":1879,"name":"Gladiators"}},{"id":5107,"title":{"id":1898,"name":"Godzilla"}},{"id":5108,"title":{"id":1947,"name":"Golden Cue"}},{"id":5109,"title":{"id":1959,"name":"Goldeneye"}},{"id":5110,"title":{"id":1985,"name":"Grand Lizard"}},{"id":5111,"title":{"id":6137,"name":"Guardians of the Galaxy (Limited Edition)"}},{"id":5112,"title":{"id":2035,"name":"Guns N' Roses (Data East)"}},{"id":5113,"title":{"id":6189,"name":"Guns N' Roses Not In This Lifetime (Standard Edition)"}},{"id":5115,"title":{"id":2077,"name":"Harley-Davidson (3rd Edition)"}},{"id":5114,"title":{"id":2074,"name":"Harley-Davidson (Stern)"}},{"id":5116,"title":{"id":2168,"name":"High Roller Casino"}},{"id":5117,"title":{"id":2171,"name":"High Speed"}},{"id":5118,"title":{"id":6030,"name":"The Hobbit (Limited Edition)"}},{"id":5119,"title":{"id":2243,"name":"Hook"}},{"id":5120,"title":{"id":6177,"name":"Hot Wheels"}},{"id":5121,"title":{"id":6144,"name":"Houdini Master of Mystery"}},{"id":5122,"title":{"id":2294,"name":"Hurricane"}},{"id":5123,"title":{"id":2310,"name":"Ice-Revue"}},{"id":5124,"title":{"id":4751,"name":"The Incredible Hulk"}},{"id":5125,"title":{"id":2330,"name":"Independence Day"}},{"id":5126,"title":{"id":2334,"name":"Indiana Jones (Williams)"}},{"id":5127,"title":{"id":2336,"name":"Indianapolis 500"}},{"id":5129,"title":{"id":6148,"name":"Iron Maiden Legacy Of The Beast (Premium)"}},{"id":5130,"title":{"id":2369,"name":"JackBot"}},{"id":5131,"title":{"id":2376,"name":"James Bond 007"}},{"id":5132,"title":{"id":6050,"name":"The Jetsons"}},{"id":5133,"title":{"id":2408,"name":"Johnny Mnemonic"}},{"id":5134,"title":{"id":2419,"name":"Jokerz!"}},{"id":5135,"title":{"id":2439,"name":"Judge Dredd"}},{"id":5136,"title":{"id":2472,"name":"Junk Yard"}},{"id":5138,"title":{"id":2474,"name":"Jurassic Park"}},{"id":5137,"title":{"id":6169,"name":"Jurassic Park (Stern Pro)"}},{"id":5139,"title":{"id":2546,"name":"Kings of Steel"}},{"id":5140,"title":{"id":2553,"name":"Kiss (Bally)"}},{"id":5141,"title":{"id":5921,"name":"KISS (Stern LE)"}},{"id":5142,"title":{"id":2611,"name":"Laser Ball"}},{"id":5143,"title":{"id":6184,"name":"Led Zeppelin (Pro)"}},{"id":5144,"title":{"id":2643,"name":"Lethal Weapon 3"}},{"id":5145,"title":{"id":4758,"name":"The Lord of the Rings (Limited Edition)"}},{"id":5146,"title":{"id":2729,"name":"Lost In Space"}},{"id":5147,"title":{"id":2730,"name":"Lost World"}},{"id":5148,"title":{"id":4759,"name":"The Lost World Jurassic Park"}},{"id":5149,"title":{"id":4760,"name":"The Machine: Bride of Pinbot"}},{"id":5150,"title":{"id":2875,"name":"Mary Shelley's Frankenstein"}},{"id":5151,"title":{"id":2893,"name":"Maverick The Movie"}},{"id":5152,"title":{"id":2898,"name":"Medieval Madness"}},{"id":5153,"title":{"id":5656,"name":"Metallica (Premium Monsters)"}},{"id":5154,"title":{"id":2953,"name":"Millionaire"}},{"id":5155,"title":{"id":3006,"name":"Monopoly"}},{"id":5156,"title":{"id":6157,"name":"Monster Bash (Remake Classic Edition)"}},{"id":5157,"title":{"id":3039,"name":"Mousin' Around!"}},{"id":5158,"title":{"id":6154,"name":"The Munsters (Limited Edition)"}},{"id":5159,"title":{"id":5807,"name":"Mustang (Limited Edition)"}},{"id":5160,"title":{"id":3087,"name":"NBA"}},{"id":5161,"title":{"id":3088,"name":"NBA Fastbreak"}},{"id":5162,"title":{"id":3126,"name":"New World"}},{"id":5163,"title":{"id":3131,"name":"NFL"}},{"id":5164,"title":{"id":3140,"name":"Night Rider (EM)"}},{"id":5165,"title":{"id":3142,"name":"Nine Ball"}},{"id":5166,"title":{"id":3145,"name":"Nip-It"}},{"id":5167,"title":{"id":3148,"name":"Nitro Ground Shaker"}},{"id":5168,"title":{"id":3150,"name":"No Fear: Dangerous Sports"}},{"id":5169,"title":{"id":3151,"name":"No Good Gofers"}},{"id":5170,"title":{"id":6190,"name":"Oktoberfest"}},{"id":5171,"title":{"id":3219,"name":"On Beam"}},{"id":5172,"title":{"id":3235,"name":"Orbitor 1"}},{"id":5173,"title":{"id":5999,"name":"The Pabst Can Crusher"}},{"id":5265,"title":{"id":3315,"name":"Party Animal"}},{"id":5175,"title":{"id":4769,"name":"The Party Zone"}},{"id":5176,"title":{"id":3346,"name":"Phantom of the Opera"}},{"id":5177,"title":{"id":3389,"name":"Pinball Magic"}},{"id":5178,"title":{"id":3411,"name":"Pirates of the Caribbean (Stern)"}},{"id":5179,"title":{"id":3455,"name":"Playboy (Bally)"}},{"id":5180,"title":{"id":3457,"name":"Playboy (Stern)"}},{"id":5181,"title":{"id":3493,"name":"Police Force"}},{"id":5182,"title":{"id":3510,"name":"Popeye Saves the Earth"}},{"id":5183,"title":{"id":6191,"name":"Primus "}},{"id":5184,"title":{"id":3601,"name":"Radical!"}},{"id":5189,"title":{"id":3647,"name":"Red \u0026 Ted's Road Show"}},{"id":5185,"title":{"id":3684,"name":"Rescue 911"}},{"id":5186,"title":{"id":3686,"name":"Revenge From Mars"}},{"id":5187,"title":{"id":3709,"name":"Ripley's Believe It or Not!"}},{"id":5188,"title":{"id":3713,"name":"Riverboat Gambler"}},{"id":5190,"title":{"id":6112,"name":"Rob Zombie's Spookshow International (Standard Edition)"}},{"id":5191,"title":{"id":3734,"name":"Robocop"}},{"id":5192,"title":{"id":3740,"name":"Rock Encore"}},{"id":5194,"title":{"id":3779,"name":"Roller Disco"}},{"id":5193,"title":{"id":3780,"name":"RollerCoaster Tycoon"}},{"id":5195,"title":{"id":3781,"name":"Rollergames"}},{"id":5263,"title":{"id":4777,"name":"The Rolling Stones (Stern)"}},{"id":5197,"title":{"id":3870,"name":"Scared Stiff"}},{"id":5198,"title":{"id":3917,"name":"Seawitch"}},{"id":5199,"title":{"id":3918,"name":"Secret Service"}},{"id":5200,"title":{"id":4778,"name":"The Shadow"}},{"id":5201,"title":{"id":3953,"name":"Shaq Attaq"}},{"id":5202,"title":{"id":3956,"name":"Sharkey's Shootout"}},{"id":5203,"title":{"id":4046,"name":"Silverball Mania"}},{"id":5205,"title":{"id":4780,"name":"The Simpsons"}},{"id":5204,"title":{"id":4781,"name":"The Simpsons Pinball Party"}},{"id":5206,"title":{"id":4782,"name":"The Six Million Dollar Man"}},{"id":5207,"title":{"id":4784,"name":"The Sopranos"}},{"id":5208,"title":{"id":4207,"name":"Sorcerer"}},{"id":5209,"title":{"id":4211,"name":"South Park"}},{"id":5210,"title":{"id":4226,"name":"Space Invaders"}},{"id":5211,"title":{"id":4227,"name":"Space Jam"}},{"id":5212,"title":{"id":658,"name":"Spider-Man (Black)"}},{"id":5213,"title":{"id":4359,"name":"Spy Hunter"}},{"id":5214,"title":{"id":4413,"name":"Star Trek (Data East)"}},{"id":5215,"title":{"id":4414,"name":"Star Trek: The Next Generation"}},{"id":5216,"title":{"id":4416,"name":"Star Wars (Data East)"}},{"id":5217,"title":{"id":6049,"name":"Star Wars (Stern Limited Edition)"}},{"id":5219,"title":{"id":4418,"name":"Star Wars Episode I"}},{"id":5218,"title":{"id":4419,"name":"Star Wars Trilogy"}},{"id":5220,"title":{"id":4426,"name":"Stargate"}},{"id":5221,"title":{"id":4435,"name":"Starship Troopers"}},{"id":5222,"title":{"id":4478,"name":"Strange Science"}},{"id":5223,"title":{"id":6192,"name":"Stranger Things (Limited Edition)"}},{"id":5224,"title":{"id":4485,"name":"Street Fighter II"}},{"id":5225,"title":{"id":4494,"name":"Striker Xtreme"}},{"id":5226,"title":{"id":4496,"name":"Strikes and Spares"}},{"id":5227,"title":{"id":4627,"name":"Swords of Fury"}},{"id":5228,"title":{"id":4635,"name":"Tag-Team Pinball"}},{"id":5229,"title":{"id":4646,"name":"Tales from the Crypt"}},{"id":5230,"title":{"id":4647,"name":"Tales of the Arabian Nights"}},{"id":5231,"title":{"id":4670,"name":"Taxi"}},{"id":5233,"title":{"id":4676,"name":"Teenage Mutant Ninja Turtles (Data East)"}},{"id":5234,"title":{"id":6178,"name":"Teenage Mutant Ninja Turtles (Stern Pro)"}},{"id":5235,"title":{"id":4695,"name":"Terminator 2: Judgment Day"}},{"id":5236,"title":{"id":4696,"name":"Terminator 3: Rise of the Machines"}},{"id":5237,"title":{"id":4794,"name":"Theatre of Magic"}},{"id":5238,"title":{"id":6149,"name":"Thunderbirds "}},{"id":5239,"title":{"id":6145,"name":"Total Nuclear Annihilation"}},{"id":5240,"title":{"id":5374,"name":"Transformers (Pro)"}},{"id":5241,"title":{"id":4946,"name":"Transporter the Rescue"}},{"id":5242,"title":{"id":4964,"name":"Tri Zone"}},{"id":5243,"title":{"id":4991,"name":"TRON Legacy"}},{"id":5244,"title":{"id":5038,"name":"Twilight Zone"}},{"id":5245,"title":{"id":5051,"name":"Twister (SEGA 1996)"}},{"id":5246,"title":{"id":5057,"name":"TX-Sector"}},{"id":5247,"title":{"id":5151,"name":"Viper Night Drivin'"}},{"id":5248,"title":{"id":5829,"name":"The Walking Dead (Pro)"}},{"id":5249,"title":{"id":5182,"name":"Waterworld"}},{"id":5250,"title":{"id":5191,"name":"Wheel Of Fortune"}},{"id":5251,"title":{"id":5217,"name":"Whirlwind"}},{"id":5252,"title":{"id":5221,"name":"White Water"}},{"id":5253,"title":{"id":5233,"name":"WHO dunnit"}},{"id":5254,"title":{"id":4789,"name":"The Who's Tommy Pinball Wizard"}},{"id":5255,"title":{"id":6168,"name":"Willy Wonka and the Chocolate Factory - Standard Edition"}},{"id":5256,"title":{"id":5899,"name":"The Wizard of Oz 75th Anniversary Limited Edition"}},{"id":5257,"title":{"id":5301,"name":"World Cup Soccer"}},{"id":5258,"title":{"id":5304,"name":"World Poker Tour"}},{"id":5259,"title":{"id":5910,"name":"Wrestlemania LE"}},{"id":5260,"title":{"id":5316,"name":"WWF Royal Rumble"}},{"id":5261,"title":{"id":4793,"name":"The X Files"}},{"id":5262,"title":{"id":5484,"name":"X-Men Wolverine LE"}}]},{"id":"nine-yards-brewing--1","name":"Nine Yards Brewing","address":"7324 NE 175th St","city":"Kenmore","postal_code":"98028","latitude":47.75670075,"longitude":-122.24156496972404,"phone":"(206) 693-2333","url":"http://nineyardsbrewing.com/?q=location","all_ages":true,"num_games":4,"machines":[{"id":4463,"title":{"id":2377,"name":"Avatar"}},{"id":4461,"title":{"id":648,"name":"Black Knight 2000"}},{"id":2657,"title":{"id":2334,"name":"Indiana Jones (Williams)"}},{"id":1804,"title":{"id":2369,"name":"JackBot"}}]},{"id":"north-star-diner-shanghai-room","name":"North Star Diner \u0026 Shanghai Room","address":"8580 Greenwood Ave N","city":"Seattle","postal_code":"98103","latitude":47.6922042,"longitude":-122.3551093,"phone":"(206) 457-5794","url":"http://northstardiner.com/","all_ages":false,"num_games":3,"machines":[{"id":5360,"title":{"id":5433,"name":"AC/DC Let There Be Rock Limited Edition"}},{"id":5362,"title":{"id":3647,"name":"Red \u0026 Ted's Road Show"}},{"id":5361,"title":{"id":5910,"name":"Wrestlemania LE"}}]},{"id":"odyssey-1","name":"Odyssey-1 ","address":"2310 Mildred St W.","city":"Seattle","postal_code":"98466 ","latitude":47.2384095,"longitude":-122.527538,"phone":"","url":"","all_ages":true,"num_games":1,"machines":[{"id":2266,"title":{"id":4710,"name":"The Addams Family"}}]},{"id":"off-the-rails-sports-pub","name":"Off The Rails Sports Pub","address":"1430 156th Ave NE","city":"Bellevue","postal_code":"98007","latitude":47.6230633,"longitude":-122.1315621,"phone":"(425) 326-1314","url":"https://www.facebook.com/offtherailssportspub/","all_ages":false,"num_games":2,"machines":[{"id":4628,"title":{"id":3006,"name":"Monopoly"}},{"id":4627,"title":{"id":3411,"name":"Pirates of the Caribbean (Stern)"}}]},{"id":"olaf-s","name":"Olaf's","address":"6301 24th Ave NW","city":"Seattle","postal_code":"98107","latitude":47.67471949999999,"longitude":-122.3878736,"phone":"(206) 297-6122","url":"http://www.olafsballard.com/","all_ages":false,"num_games":12,"machines":[{"id":1811,"title":{"id":642,"name":"Black Hole (Gottleib)"}},{"id":1195,"title":{"id":755,"name":"Bram Stoker's Dracula"}},{"id":794,"title":{"id":1376,"name":"Doctor Who"}},{"id":4511,"title":{"id":6172,"name":"Elvira’s House of Horrors (Premium)"}},{"id":1611,"title":{"id":5964,"name":"Game of Thrones (Pro)"}},{"id":1680,"title":{"id":1862,"name":"Genie"}},{"id":1661,"title":{"id":5967,"name":"The Machine: Bride of Pin·bot 2.0"}},{"id":1807,"title":{"id":3781,"name":"Rollergames"}},{"id":894,"title":{"id":5600,"name":"Star Trek (Starfleet Pro Stern)"}},{"id":2587,"title":{"id":6047,"name":"Star Wars (Stern Pro)"}},{"id":950,"title":{"id":5038,"name":"Twilight Zone"}},{"id":1182,"title":{"id":5829,"name":"The Walking Dead (Pro)"}}]},{"id":"old-school-pizzeria","name":"Old School Pizzeria","address":"108 Franklin St NE","city":"Olympia","postal_code":"98501","latitude":47.0452471632653,"longitude":-122.899106,"phone":"(360) 786-9640","url":"http://www.oldschool-pizzeria.com/","all_ages":true,"num_games":3,"machines":[{"id":3957,"title":{"id":1360,"name":"Dirty Harry"}},{"id":3958,"title":{"id":1639,"name":"Fire!"}},{"id":3959,"title":{"id":3039,"name":"Mousin' Around!"}}]},{"id":"olympia-pinball-museum","name":"Olympia Pinball Museum","address":"509 Capitol Way S","city":"Olympia ","postal_code":"98501","latitude":47.0239881,"longitude":-122.896927,"phone":" (360) 878-8483","url":"https://www.olympiapinballmuseum.com/","all_ages":true,"num_games":69,"machines":[{"id":4798,"title":{"id":109,"name":"Adventures of Rocky and Bullwinkle and Friends"}},{"id":4752,"title":{"id":6035,"name":"Aerosmith (Pro)"}},{"id":4819,"title":{"id":6165,"name":"Alice Cooper's Nightmare Castle"}},{"id":4803,"title":{"id":4713,"name":"The Amazing Spider-Man"}},{"id":4753,"title":{"id":271,"name":"Attack from Mars"}},{"id":5020,"title":{"id":6183,"name":"The Avengers Infinity Quest (Limited Edition)"}},{"id":5012,"title":{"id":6194,"name":"The Beatles (Gold Edition)"}},{"id":5013,"title":{"id":642,"name":"Black Hole (Gottleib)"}},{"id":5014,"title":{"id":6162,"name":"Black Knight: Sword of Rage (Pro)"}},{"id":5015,"title":{"id":656,"name":"Black Rose"}},{"id":4817,"title":{"id":755,"name":"Bram Stoker's Dracula"}},{"id":4754,"title":{"id":760,"name":"Breakshot"}},{"id":4756,"title":{"id":793,"name":"Buckaroo (1965 Gottlieb)"}},{"id":4757,"title":{"id":797,"name":"Bugs Bunny's Birthday Ball"}},{"id":4759,"title":{"id":890,"name":"Card Whiz (1976 Gottlieb)"}},{"id":5017,"title":{"id":1036,"name":"Class of 1812"}},{"id":4762,"title":{"id":1084,"name":"Comet (1985 Williams)"}},{"id":4763,"title":{"id":1136,"name":"Corvette"}},{"id":4818,"title":{"id":6150,"name":"Deadpool (Pro)"}},{"id":4764,"title":{"id":1299,"name":"Deluxe Official Baseball"}},{"id":4765,"title":{"id":1325,"name":"Derby Day (1967 Williams)"}},{"id":4766,"title":{"id":1355,"name":"Diner"}},{"id":4771,"title":{"id":1376,"name":"Doctor Who"}},{"id":4770,"title":{"id":1429,"name":"Dr. Dude"}},{"id":4773,"title":{"id":6173,"name":"Elvira’s House of Horrors (Limited Edition)"}},{"id":4774,"title":{"id":1591,"name":"Far Out (1974 Gottlieb)"}},{"id":4776,"title":{"id":1784,"name":"Free Fall"}},{"id":4777,"title":{"id":1862,"name":"Genie"}},{"id":5019,"title":{"id":2035,"name":"Guns N' Roses (Data East)"}},{"id":5018,"title":{"id":6188,"name":"Guns N' Roses Not In This Lifetime (Limited Edition)"}},{"id":4779,"title":{"id":2084,"name":"Haunted House"}},{"id":4781,"title":{"id":2117,"name":"Hercules (Atari)"}},{"id":5010,"title":{"id":6177,"name":"Hot Wheels"}},{"id":4783,"title":{"id":6144,"name":"Houdini Master of Mystery"}},{"id":4784,"title":{"id":6147,"name":"Iron Maiden Legacy of the Beast (Pro)"}},{"id":4785,"title":{"id":2419,"name":"Jokerz!"}},{"id":4787,"title":{"id":2472,"name":"Junk Yard"}},{"id":4750,"title":{"id":6169,"name":"Jurassic Park (Stern Pro)"}},{"id":5016,"title":{"id":4760,"name":"The Machine: Bride of Pinbot"}},{"id":4789,"title":{"id":2884,"name":"Mata Hari"}},{"id":5009,"title":{"id":2898,"name":"Medieval Madness"}},{"id":4790,"title":{"id":5658,"name":"Metallica (Pro)"}},{"id":4791,"title":{"id":6157,"name":"Monster Bash (Remake Classic Edition)"}},{"id":5008,"title":{"id":3039,"name":"Mousin' Around!"}},{"id":4806,"title":{"id":6155,"name":"The Munsters (Pro)"}},{"id":4792,"title":{"id":3078,"name":"NASCAR"}},{"id":5007,"title":{"id":3151,"name":"No Good Gofers"}},{"id":4793,"title":{"id":3402,"name":"PINBOT"}},{"id":5021,"title":{"id":3411,"name":"Pirates of the Caribbean (Stern)"}},{"id":4794,"title":{"id":3493,"name":"Police Force"}},{"id":4796,"title":{"id":3647,"name":"Red \u0026 Ted's Road Show"}},{"id":4795,"title":{"id":3686,"name":"Revenge From Mars"}},{"id":5004,"title":{"id":6176,"name":"Rick And Morty"}},{"id":5006,"title":{"id":3780,"name":"RollerCoaster Tycoon"}},{"id":4998,"title":{"id":3845,"name":"Safe Cracker"}},{"id":4997,"title":{"id":4780,"name":"The Simpsons"}},{"id":4800,"title":{"id":4211,"name":"South Park"}},{"id":4801,"title":{"id":4226,"name":"Space Invaders"}},{"id":5000,"title":{"id":5600,"name":"Star Trek (Starfleet Pro Stern)"}},{"id":5001,"title":{"id":6053,"name":"Star Wars (Stern Premium)"}},{"id":4804,"title":{"id":4478,"name":"Strange Science"}},{"id":5002,"title":{"id":4594,"name":"Surf 'n Safari"}},{"id":4996,"title":{"id":4695,"name":"Terminator 2: Judgment Day"}},{"id":4995,"title":{"id":4794,"name":"Theatre of Magic"}},{"id":4807,"title":{"id":4946,"name":"Transporter the Rescue"}},{"id":4808,"title":{"id":5005,"name":"Truck Stop"}},{"id":4994,"title":{"id":5157,"name":"Volcano"}},{"id":4993,"title":{"id":6168,"name":"Willy Wonka and the Chocolate Factory - Standard Edition"}},{"id":4992,"title":{"id":5484,"name":"X-Men Wolverine LE"}}]},{"id":"orange-dracula","name":"Orange Dracula","address":"1501 Pike Place #319","city":"Seattle","postal_code":"98101","latitude":47.60839420000001,"longitude":-122.3414031,"phone":"(206) 623-5064","url":"http://orangedracula.com/","all_ages":true,"num_games":1,"machines":[{"id":411,"title":{"id":755,"name":"Bram Stoker's Dracula"}}]},{"id":"paradise-lanes","name":"Paradise Lanes","address":"355 Spring St","city":"Friday Harbor","postal_code":"98250","latitude":48.5326380258511,"longitude":-123.019167621989,"phone":"(360) 370-5667","url":"https://www.facebook.com/pages/Paradise-Lanes/180869245260778","all_ages":true,"num_games":1,"machines":[{"id":4376,"title":{"id":2377,"name":"Avatar"}}]},{"id":"parlor-shop","name":"Parlor Shop ","address":"19815 Viking Ave NW","city":"Poulsbo","postal_code":"98370","latitude":47.7429948,"longitude":-122.657294,"phone":"(360) 930-8320","url":"https://www.facebook.com/parlorshoppizza/","all_ages":false,"num_games":2,"machines":[{"id":5396,"title":{"id":5991,"name":"Spider-Man (Vault Edition)"}},{"id":4990,"title":{"id":4551,"name":"Super Mario Bros. Mushroom World"}}]},{"id":"pied-piper-pub","name":"Pied Piper Pub","address":"311 W Meeker St","city":"Kent","postal_code":"98032","latitude":47.38175595,"longitude":-122.23535425,"phone":"(253) 852-9914","url":"https://www.facebook.com/Pied-Piper-Pub-114158401947513/","all_ages":false,"num_games":1,"machines":[{"id":4655,"title":{"id":4794,"name":"Theatre of Magic"}}]},{"id":"pit-stop-bottle-shop","name":" Pit Stop Bottle Shop","address":"216 SW 153rd Street","city":"Burien","postal_code":"98166","latitude":47.4662493,"longitude":-122.3373042,"phone":"(206) 420-8412","url":"http://www.pitstoptaproom.com/","all_ages":true,"num_games":4,"machines":[{"id":5595,"title":{"id":5433,"name":"AC/DC Let There Be Rock Limited Edition"}},{"id":5596,"title":{"id":6077,"name":"Dialed In! (Standard Edition)"}},{"id":5597,"title":{"id":2643,"name":"Lethal Weapon 3"}},{"id":5598,"title":{"id":4288,"name":"Spider-Man"}}]},{"id":"powerup-arcade-bar","name":"Powerup Arcade Bar","address":"1022 N. Columbia Center Blvd, Suite 210","city":"Kennewick","postal_code":"99336","latitude":46.220599,"longitude":-119.223542,"phone":" (509) 579-4255","url":"https://www.facebook.com/poweruparcadebar/","all_ages":false,"num_games":5,"machines":[{"id":4705,"title":{"id":6150,"name":"Deadpool (Pro)"}},{"id":4706,"title":{"id":2243,"name":"Hook"}},{"id":4709,"title":{"id":6155,"name":"The Munsters (Pro)"}},{"id":4707,"title":{"id":4227,"name":"Space Jam"}},{"id":4708,"title":{"id":6047,"name":"Star Wars (Stern Pro)"}}]},{"id":"pub-85","name":"Pub 85","address":"12859 NE 85th St","city":"Kirkland","postal_code":"98033","latitude":47.6791269,"longitude":-122.1670778,"phone":" (425) 576-8640","url":"https://www.facebook.com/Pub85/","all_ages":false,"num_games":1,"machines":[{"id":4663,"title":{"id":3411,"name":"Pirates of the Caribbean (Stern)"}}]},{"id":"purdys-arcade-craft-house","name":"Purdys Arcade \u0026 Craft House","address":"16202 64th Street East","city":"Sumner","postal_code":"98390","latitude":47.1989814475621,"longitude":-122.213142893749,"phone":"(253) 375-6077","url":"https://www.facebook.com/Purdys-Arcade-Craft-House-106964434138703/","all_ages":true,"num_games":5,"machines":[{"id":5368,"title":{"id":6194,"name":"The Beatles (Gold Edition)"}},{"id":5780,"title":{"id":1224,"name":"Cyclone"}},{"id":5370,"title":{"id":6172,"name":"Elvira’s House of Horrors (Premium)"}},{"id":5779,"title":{"id":5600,"name":"Star Trek (Starfleet Pro Stern)"}},{"id":4592,"title":{"id":5374,"name":"Transformers (Pro)"}}]},{"id":"quarters-arcade","name":"Quarters Arcade","address":"604 4th St","city":"Bremerton","postal_code":"98337","latitude":47.5657935,"longitude":-122.6287187,"phone":"(360) 627-8093","url":"http://www.quartersarcade.net/","all_ages":true,"num_games":5,"machines":[{"id":3743,"title":{"id":6194,"name":"The Beatles (Gold Edition)"}},{"id":2169,"title":{"id":5971,"name":"Ghostbusters (Pro)"}},{"id":3362,"title":{"id":6136,"name":"Guardians of the Galaxy (Pro)"}},{"id":4401,"title":{"id":6169,"name":"Jurassic Park (Stern Pro)"}},{"id":2694,"title":{"id":6047,"name":"Star Wars (Stern Pro)"}}]},{"id":"quarterworld-arcade","name":"QuarterWorld Arcade","address":"4811 SE Hawthorne Blvd","city":"Portland","postal_code":"97215","latitude":45.5122526,"longitude":-122.61278,"phone":"5037969364","url":"http://www.quarterworldarcade.com/","all_ages":true,"num_games":33,"machines":[{"id":3255,"title":{"id":109,"name":"Adventures of Rocky and Bullwinkle and Friends"}},{"id":3257,"title":{"id":6048,"name":"Attack From Mars (Remake Limited Edition)"}},{"id":2446,"title":{"id":304,"name":"Baby Pac-Man"}},{"id":2447,"title":{"id":4716,"name":"The Bally Game Show"}},{"id":2448,"title":{"id":6010,"name":"Batman (66 Limited Edition)"}},{"id":2451,"title":{"id":1031,"name":"Cirqus Voltaire"}},{"id":2452,"title":{"id":1101,"name":"Congo"}},{"id":2453,"title":{"id":1312,"name":"Demolition Man"}},{"id":3251,"title":{"id":6076,"name":"Dialed In! (Limited Edition)"}},{"id":3260,"title":{"id":1473,"name":"Earthshaker"}},{"id":2454,"title":{"id":1519,"name":"Elvira and the Party Monsters"}},{"id":3262,"title":{"id":1645,"name":"Fireball Classic"}},{"id":2455,"title":{"id":4737,"name":"The Flintstones"}},{"id":3248,"title":{"id":1817,"name":"Funhouse"}},{"id":2456,"title":{"id":5964,"name":"Game of Thrones (Pro)"}},{"id":2457,"title":{"id":5971,"name":"Ghostbusters (Pro)"}},{"id":2458,"title":{"id":1970,"name":"Gorgar"}},{"id":3253,"title":{"id":6136,"name":"Guardians of the Galaxy (Pro)"}},{"id":2459,"title":{"id":2035,"name":"Guns N' Roses (Data East)"}},{"id":2460,"title":{"id":2332,"name":"Indiana Jones (Stern)"}},{"id":3261,"title":{"id":2348,"name":"Iron Man"}},{"id":2461,"title":{"id":2898,"name":"Medieval Madness"}},{"id":2462,"title":{"id":3007,"name":"Monster Bash"}},{"id":3259,"title":{"id":4769,"name":"The Party Zone"}},{"id":3256,"title":{"id":3510,"name":"Popeye Saves the Earth"}},{"id":2466,"title":{"id":4781,"name":"The Simpsons Pinball Party"}},{"id":3249,"title":{"id":6049,"name":"Star Wars (Stern Limited Edition)"}},{"id":2468,"title":{"id":4794,"name":"Theatre of Magic"}},{"id":3250,"title":{"id":6145,"name":"Total Nuclear Annihilation"}},{"id":3254,"title":{"id":5038,"name":"Twilight Zone"}},{"id":2469,"title":{"id":5853,"name":"The Walking Dead (Limited Edition)"}},{"id":2470,"title":{"id":4789,"name":"The Who's Tommy Pinball Wizard"}},{"id":2471,"title":{"id":4793,"name":"The X Files"}}]},{"id":"rabbit-hole","name":"Rabbit Hole","address":"2224 2nd Ave","city":"Seattle","postal_code":"98121","latitude":47.6140347,"longitude":-122.3450006,"phone":"(206) 728-6069","url":"http://rabbitholeseattle.com/","all_ages":false,"num_games":1,"machines":[{"id":5607,"title":{"id":2378,"name":"Avatar LE"}}]},{"id":"rainbow-cafe","name":"Rainbow Cafe","address":"112 E Main St","city":"Auburn","postal_code":"98002","latitude":47.30719935,"longitude":-122.228215810214,"phone":"(253) 833-1880","url":"http://www.rainbowcafediner.com/","all_ages":true,"num_games":1,"machines":[{"id":4115,"title":{"id":2898,"name":"Medieval Madness"}}]},{"id":"raygun-lounge","name":"Raygun Lounge","address":"501 E Pine St","city":"Seattle","postal_code":"98122","latitude":47.6150629,"longitude":-122.325203,"phone":"206.812.2521","url":"http://www.gammaraygamestore.com","all_ages":true,"num_games":11,"machines":[{"id":5453,"title":{"id":271,"name":"Attack from Mars"}},{"id":5473,"title":{"id":6181,"name":"The Avengers Infinity Quest (Pro) "}},{"id":5817,"title":{"id":6150,"name":"Deadpool (Pro)"}},{"id":5455,"title":{"id":1312,"name":"Demolition Man"}},{"id":5456,"title":{"id":1460,"name":"Dungeons \u0026 Dragons"}},{"id":5463,"title":{"id":6136,"name":"Guardians of the Galaxy (Pro)"}},{"id":5458,"title":{"id":2408,"name":"Johnny Mnemonic"}},{"id":5829,"title":{"id":6169,"name":"Jurassic Park (Stern Pro)"}},{"id":5454,"title":{"id":2869,"name":"Mars Trek"}},{"id":5462,"title":{"id":4778,"name":"The Shadow"}},{"id":5460,"title":{"id":4695,"name":"Terminator 2: Judgment Day"}}]},{"id":"r-bar-and-grill","name":"R Bar and Grill","address":"17178 116th Ave SE","city":"Renton","postal_code":"98058","latitude":47.4491165,"longitude":-122.1855103,"phone":"(425) 228-7811","url":"https://www.facebook.com/RBarNGrill/","all_ages":false,"num_games":1,"machines":[{"id":4648,"title":{"id":5971,"name":"Ghostbusters (Pro)"}}]},{"id":"red-onion-tavern","name":"Red Onion Tavern","address":"4210 E Madison St.","city":"Seattle","postal_code":"98112","latitude":47.63603519999999,"longitude":-122.2781182,"phone":"(206) 323-1611","url":"https://www.facebook.com/pages/Red-Onion-Tavern/142086802537770","all_ages":false,"num_games":1,"machines":[{"id":5421,"title":{"id":1209,"name":"CSI"}}]},{"id":"replay-cafe","name":"Replay Cafe","address":"15002 WA-99","city":"Lynnwood","postal_code":"98087","latitude":47.862265,"longitude":-122.285726,"phone":"(425) 582-8701","url":"https://www.facebook.com/thereplaycafe","all_ages":false,"num_games":4,"machines":[{"id":1524,"title":{"id":304,"name":"Baby Pac-Man"}},{"id":1505,"title":{"id":972,"name":"Checkpoint"}},{"id":1507,"title":{"id":3493,"name":"Police Force"}},{"id":1506,"title":{"id":4156,"name":"Slugfest (1952 Williams)"}}]},{"id":"ringers","name":"Ringers","address":"22803 44th Ave W #B3","city":"Mountlake Terrace","postal_code":"98043","latitude":47.7910501,"longitude":-122.2901109,"phone":"425-771-6072 ","url":"http://ringerspub.com","all_ages":false,"num_games":1,"machines":[{"id":5683,"title":{"id":6049,"name":"Star Wars (Stern Limited Edition)"}}]},{"id":"roanoke-park-place-tavern","name":"Roanoke Park Place Tavern","address":"2409 10th Ave E","city":"Seattle","postal_code":"98102","latitude":47.64172079999999,"longitude":-122.3202982,"phone":"(206) 324-5882","url":"http://www.roanokeseattle.com/","all_ages":false,"num_games":1,"machines":[{"id":4872,"title":{"id":5038,"name":"Twilight Zone"}}]},{"id":"ruckus-room","name":"Ruckus Room","address":"1423 Railroad Ave","city":"Bellingham","postal_code":"98225","latitude":48.7509812,"longitude":-122.475928,"phone":"360-255-0453","url":"https://www.ruckusbham.com/","all_ages":true,"num_games":10,"machines":[{"id":3125,"title":{"id":4710,"name":"The Addams Family"}},{"id":3126,"title":{"id":6048,"name":"Attack From Mars (Remake Limited Edition)"}},{"id":3782,"title":{"id":5971,"name":"Ghostbusters (Pro)"}},{"id":5385,"title":{"id":4757,"name":"The Lord of the Rings"}},{"id":4356,"title":{"id":6155,"name":"The Munsters (Pro)"}},{"id":5386,"title":{"id":3151,"name":"No Good Gofers"}},{"id":3134,"title":{"id":3686,"name":"Revenge From Mars"}},{"id":5387,"title":{"id":4426,"name":"Stargate"}},{"id":4379,"title":{"id":5038,"name":"Twilight Zone"}},{"id":3786,"title":{"id":5221,"name":"White Water"}}]},{"id":"rudy-s-barbershop","name":"Rudy's Barbershop","address":"10713 Main St","city":"Bellevue","postal_code":"98004","latitude":47.610033,"longitude":-122.197248,"phone":"(425) 467-1462","url":"https://rudysbarbershop.com/blogs/locations/bellevue-seattle-barbershop","all_ages":true,"num_games":1,"machines":[{"id":4661,"title":{"id":2348,"name":"Iron Man"}}]},{"id":"seattle-pinball-museum","name":"Seattle Pinball Museum","address":"508 Maynard Ave S","city":"Seattle","postal_code":"98104","latitude":47.598049,"longitude":-122.3246844,"phone":"(206) 623-0759","url":"http://www.seattlepinballmuseum.com/","all_ages":true,"num_games":45,"machines":[{"id":5526,"title":{"id":5784,"name":"America's Most Haunted"}},{"id":5527,"title":{"id":274,"name":"Attila the Hun"}},{"id":5528,"title":{"id":295,"name":"Aztec (EM)"}},{"id":5529,"title":{"id":642,"name":"Black Hole (Gottleib)"}},{"id":5531,"title":{"id":647,"name":"Black Knight"}},{"id":5530,"title":{"id":691,"name":"Bo Bo"}},{"id":5608,"title":{"id":793,"name":"Buckaroo (1965 Gottlieb)"}},{"id":5533,"title":{"id":867,"name":"Capersville"}},{"id":5534,"title":{"id":871,"name":"Capt. Fantastic and The Brown Dirt Cowboy"}},{"id":5535,"title":{"id":1054,"name":"Close Encounters of the Third Kind"}},{"id":5536,"title":{"id":1175,"name":"Creature from the Black Lagoon"}},{"id":5537,"title":{"id":1247,"name":"Dale Jr."}},{"id":5538,"title":{"id":1473,"name":"Earthshaker"}},{"id":5539,"title":{"id":1483,"name":"Eight Ball"}},{"id":5540,"title":{"id":1555,"name":"Expressway"}},{"id":5541,"title":{"id":1719,"name":"Flying Carpet (Gottlieb)"}},{"id":5543,"title":{"id":1809,"name":"Fun Land"}},{"id":5542,"title":{"id":1817,"name":"Funhouse"}},{"id":5544,"title":{"id":1898,"name":"Godzilla"}},{"id":5546,"title":{"id":2035,"name":"Guns N' Roses (Data East)"}},{"id":5545,"title":{"id":6188,"name":"Guns N' Roses Not In This Lifetime (Limited Edition)"}},{"id":5547,"title":{"id":5995,"name":"The Hobbit (Smaug Gold Special Edition)"}},{"id":5548,"title":{"id":6144,"name":"Houdini Master of Mystery"}},{"id":5549,"title":{"id":6147,"name":"Iron Maiden Legacy of the Beast (Pro)"}},{"id":5572,"title":{"id":2540,"name":"King Tut (Bally 1969)"}},{"id":5551,"title":{"id":4757,"name":"The Lord of the Rings"}},{"id":5552,"title":{"id":5658,"name":"Metallica (Pro)"}},{"id":5553,"title":{"id":3145,"name":"Nip-It"}},{"id":5554,"title":{"id":3235,"name":"Orbitor 1"}},{"id":5555,"title":{"id":3242,"name":"Out of Sight"}},{"id":5556,"title":{"id":3686,"name":"Revenge From Mars"}},{"id":5557,"title":{"id":4777,"name":"The Rolling Stones (Stern)"}},{"id":5558,"title":{"id":3870,"name":"Scared Stiff"}},{"id":5559,"title":{"id":4784,"name":"The Sopranos"}},{"id":5560,"title":{"id":4418,"name":"Star Wars Episode I"}},{"id":5573,"title":{"id":4424,"name":"Stardust (Williams 1971)"}},{"id":5562,"title":{"id":6174,"name":"Stranger Things (Pro)"}},{"id":5563,"title":{"id":6178,"name":"Teenage Mutant Ninja Turtles (Stern Pro)"}},{"id":5564,"title":{"id":4695,"name":"Terminator 2: Judgment Day"}},{"id":5574,"title":{"id":4700,"name":"Texan (Gottlieb 1960)"}},{"id":5566,"title":{"id":4794,"name":"Theatre of Magic"}},{"id":5567,"title":{"id":4964,"name":"Tri Zone"}},{"id":5568,"title":{"id":5038,"name":"Twilight Zone"}},{"id":5580,"title":{"id":6167,"name":"Willy Wonka and the Chocolate Factory - Limited Edition"}},{"id":5570,"title":{"id":5287,"name":"Wizard!"}}]},{"id":"seattle-tavern-pool-room","name":"Seattle Tavern \u0026 Pool Room","address":"5811 Airport Way S","city":"Seattle","postal_code":"98108","latitude":47.5504082,"longitude":-122.3184339,"phone":"","url":"https://www.facebook.com/Seattle-Tavern-Pool-Room-944139925703227/","all_ages":false,"num_games":6,"machines":[{"id":4934,"title":{"id":1101,"name":"Congo"}},{"id":4935,"title":{"id":6150,"name":"Deadpool (Pro)"}},{"id":5830,"title":{"id":5966,"name":"Game of Thrones (Limited Edition)"}},{"id":4937,"title":{"id":5658,"name":"Metallica (Pro)"}},{"id":5339,"title":{"id":3870,"name":"Scared Stiff"}},{"id":4938,"title":{"id":5191,"name":"Wheel Of Fortune"}}]},{"id":"shakey-s-pizza","name":"Shakey's Pizza","address":"14300 SE Petrovitsky Rd","city":"Renton","postal_code":"98058","latitude":47.4448173,"longitude":-122.1494941,"phone":"(425) 277-0227","url":"http://www.shakeys.com/locations/?q=renton","all_ages":true,"num_games":2,"machines":[{"id":4647,"title":{"id":5583,"name":"The Avengers (Pro)"}},{"id":2680,"title":{"id":4780,"name":"The Simpsons"}}]},{"id":"shorty-s","name":"Shorty's","address":"2316 2nd Ave","city":"Seattle","postal_code":"98121","latitude":47.6144972,"longitude":-122.3460231,"phone":"(206) 441-5449","url":"http://shortydog.com/","all_ages":false,"num_games":16,"machines":[{"id":1,"title":{"id":4710,"name":"The Addams Family"}},{"id":4289,"title":{"id":304,"name":"Baby Pac-Man"}},{"id":4243,"title":{"id":6164,"name":"Black Knight: Sword of Rage (Limited Edition)"}},{"id":4832,"title":{"id":932,"name":"Centaur"}},{"id":5271,"title":{"id":6076,"name":"Dialed In! (Limited Edition)"}},{"id":4466,"title":{"id":6173,"name":"Elvira’s House of Horrors (Limited Edition)"}},{"id":5700,"title":{"id":2472,"name":"Junk Yard"}},{"id":4492,"title":{"id":6171,"name":"Jurassic Park (Limited Edition)"}},{"id":5340,"title":{"id":6185,"name":"Led Zeppelin (Premium)"}},{"id":4290,"title":{"id":2730,"name":"Lost World"}},{"id":4491,"title":{"id":2898,"name":"Medieval Madness"}},{"id":4065,"title":{"id":6154,"name":"The Munsters (Limited Edition)"}},{"id":1869,"title":{"id":3845,"name":"Safe Cracker"}},{"id":4652,"title":{"id":6174,"name":"Stranger Things (Pro)"}},{"id":4292,"title":{"id":4661,"name":"Target Alpha"}},{"id":4364,"title":{"id":6167,"name":"Willy Wonka and the Chocolate Factory - Limited Edition"}}]},{"id":"sirens","name":"Sirens","address":"312 Naval Ave","city":"Bremerton","postal_code":"98337","latitude":47.565659,"longitude":-122.646191,"phone":"(360) 627-8060","url":"https://www.facebook.com/SirensBremerton/","all_ages":false,"num_games":1,"machines":[{"id":4098,"title":{"id":3078,"name":"NASCAR"}}]},{"id":"ski-inn-tavern","name":"Ski Inn Tavern","address":"1113 Griffin Ave","city":"Enumclaw","postal_code":"98022","latitude":47.2033871,"longitude":-121.9890359,"phone":"(360) 825-5267","url":"https://www.facebook.com/Ski-Inn-Sports-Bar-144779505574273/","all_ages":false,"num_games":2,"machines":[{"id":4658,"title":{"id":5583,"name":"The Avengers (Pro)"}},{"id":4657,"title":{"id":6136,"name":"Guardians of the Galaxy (Pro)"}}]},{"id":"slaughter-county-brewery","name":"Slaughter County Brewery","address":"1307 Bay St ","city":"Port Orchard","postal_code":"98366","latitude":47.542866,"longitude":-122.6261848,"phone":"360.329.2340","url":"https://www.facebook.com/SlaughterCountyBrewing/","all_ages":true,"num_games":8,"machines":[{"id":4940,"title":{"id":4710,"name":"The Addams Family"}},{"id":5613,"title":{"id":4716,"name":"The Bally Game Show"}},{"id":5519,"title":{"id":5964,"name":"Game of Thrones (Pro)"}},{"id":5341,"title":{"id":5971,"name":"Ghostbusters (Pro)"}},{"id":5793,"title":{"id":6136,"name":"Guardians of the Galaxy (Pro)"}},{"id":5451,"title":{"id":2243,"name":"Hook"}},{"id":2537,"title":{"id":4244,"name":"Space Station"}},{"id":5342,"title":{"id":4485,"name":"Street Fighter II"}}]},{"id":"slippery-pig-brewery","name":"Slippery Pig Brewery","address":"18801 Front St NE","city":"Poulsbo","postal_code":"98370","latitude":47.7334671,"longitude":-122.6458885,"phone":"(360) 394-1686","url":"http://www.slipperypigbrewery.com/","all_ages":true,"num_games":8,"machines":[{"id":4579,"title":{"id":2408,"name":"Johnny Mnemonic"}},{"id":4450,"title":{"id":6169,"name":"Jurassic Park (Stern Pro)"}},{"id":2956,"title":{"id":4211,"name":"South Park"}},{"id":3563,"title":{"id":4435,"name":"Starship Troopers"}},{"id":2925,"title":{"id":4444,"name":"Stellar Wars"}},{"id":4446,"title":{"id":4551,"name":"Super Mario Bros. Mushroom World"}},{"id":3858,"title":{"id":5217,"name":"Whirlwind"}},{"id":4580,"title":{"id":5301,"name":"World Cup Soccer"}}]},{"id":"sloop-tavern","name":"Sloop Tavern","address":"2830 NW Market St","city":"Seattle","postal_code":"98107","latitude":47.6687,"longitude":-122.394,"phone":"206-782-3330","url":"http://www.theslooptavern.com","all_ages":false,"num_games":2,"machines":[{"id":4024,"title":{"id":5971,"name":"Ghostbusters (Pro)"}},{"id":3624,"title":{"id":2334,"name":"Indiana Jones (Williams)"}}]},{"id":"smokey-joe-s-tavern","name":"Smokey Joe's Tavern","address":"38600 SE King St","city":"Snoqualmie","postal_code":"98065","latitude":47.528745,"longitude":-121.825893,"phone":"(425) 831-6978","url":"https://www.facebook.com/smokeyjoesbargrill/","all_ages":false,"num_games":1,"machines":[{"id":4659,"title":{"id":4757,"name":"The Lord of the Rings"}}]},{"id":"soundview-tavern","name":"Soundview Tavern","address":"1116 Hewitt Ave","city":"Everett","postal_code":"98201","latitude":47.9790608,"longitude":-122.2147776,"phone":"(425) 259-3383","url":"http://https://www.facebook.com/pages/Soundview-Bar-Grill/251607955979","all_ages":false,"num_games":2,"machines":[{"id":1134,"title":{"id":2898,"name":"Medieval Madness"}},{"id":1423,"title":{"id":3870,"name":"Scared Stiff"}}]},{"id":"southgate-roller-rink","name":"Southgate Roller Rink","address":"9646 17th Ave SW","city":"Seattle","postal_code":"98106","latitude":47.5159951,"longitude":-122.3560093,"phone":"206.707.6949","url":"http://www.southgaterollerrink.com/index.html","all_ages":true,"num_games":3,"machines":[{"id":5345,"title":{"id":2474,"name":"Jurassic Park"}},{"id":5344,"title":{"id":3780,"name":"RollerCoaster Tycoon"}},{"id":5343,"title":{"id":4627,"name":"Swords of Fury"}}]},{"id":"south-town-pie","name":"South Town Pie","address":"8611 14th Ave S","city":"Seattle","postal_code":"98108","latitude":47.5260598,"longitude":-122.3151064,"phone":"(206) 535-7166","url":"https://www.facebook.com/ForYourPieHole/","all_ages":true,"num_games":3,"machines":[{"id":5796,"title":{"id":6162,"name":"Black Knight: Sword of Rage (Pro)"}},{"id":5795,"title":{"id":6136,"name":"Guardians of the Galaxy (Pro)"}},{"id":5794,"title":{"id":5301,"name":"World Cup Soccer"}}]},{"id":"spin-alley-bowling-center","name":"Spin Alley Bowling Center","address":"1430 NW Richmond Beach Rd.","city":"Shoreline","postal_code":"98177","latitude":47.76929115214433,"longitude":-122.37579940575155,"phone":"(206) 533-2345","url":"https://www.facebook.com/spinalleybowling/","all_ages":true,"num_games":4,"machines":[{"id":5359,"title":{"id":1493,"name":"El Dorado City of Gold"}},{"id":5356,"title":{"id":4780,"name":"The Simpsons"}},{"id":5358,"title":{"id":4211,"name":"South Park"}},{"id":5357,"title":{"id":4594,"name":"Surf 'n Safari"}}]},{"id":"spin-city-laundry","name":"Spin City Laundry","address":"4520 Lacey Blvd SE","city":"Lacey","postal_code":"98503","latitude":47.0366841439238,"longitude":-122.826035848262,"phone":"(360) 438-3633","url":"https://www.facebook.com/pages/Spin-City-Laundry/410703325787342","all_ages":true,"num_games":2,"machines":[{"id":3964,"title":{"id":1655,"name":"Fish Tales"}},{"id":3965,"title":{"id":2348,"name":"Iron Man"}}]},{"id":"spud-fish-chips","name":"Spud Fish \u0026 Chips","address":"174 Sunset Ave","city":"Edmonds","postal_code":"98020","latitude":47.810986,"longitude":-122.383454,"phone":"(425) 678-0984","url":"https://spudfishandchips.com/","all_ages":true,"num_games":2,"machines":[{"id":4429,"title":{"id":3898,"name":"Scuba"}},{"id":3917,"title":{"id":4601,"name":"Surf Side"}}]},{"id":"steilacoom-pub-grill","name":"Steilacoom Pub \u0026 Grill","address":"1202 Rainier St","city":"Steilacoom","postal_code":"98388","latitude":47.16942625,"longitude":-122.6024679841421,"phone":"(253) 584-7693","url":"https://steilacoompub.com/","all_ages":false,"num_games":1,"machines":[{"id":5670,"title":{"id":2332,"name":"Indiana Jones (Stern)"}}]},{"id":"streamline-tavern","name":"Streamline Tavern","address":"174 Roy St","city":"Seattle","postal_code":"98109","latitude":47.6255799,"longitude":-122.3531537,"phone":"(206) 283-0519","url":"https://www.facebook.com/streamlinetavern/","all_ages":false,"num_games":3,"machines":[{"id":2683,"title":{"id":4710,"name":"The Addams Family"}},{"id":3472,"title":{"id":271,"name":"Attack from Mars"}},{"id":3932,"title":{"id":2898,"name":"Medieval Madness"}}]},{"id":"supreme","name":"Supreme","address":"4521 California Ave SW","city":"Seattle","postal_code":"98116","latitude":47.5622789,"longitude":-122.387028,"phone":"","url":"https://www.facebook.com/supremebarseattle/","all_ages":false,"num_games":3,"machines":[{"id":5269,"title":{"id":2334,"name":"Indiana Jones (Williams)"}},{"id":3320,"title":{"id":5659,"name":"Metallica Master of Puppets (Limited Edition)"}},{"id":5268,"title":{"id":6047,"name":"Star Wars (Stern Pro)"}}]},{"id":"tacoma-brewing-co","name":"Tacoma Brewing Co.","address":"1116 Court E","city":"Tacoma","postal_code":"98402","latitude":47.2521914,"longitude":-122.4438556,"phone":"http://www.tacomabrewing.com/","url":"","all_ages":true,"num_games":6,"machines":[{"id":4217,"title":{"id":1224,"name":"Cyclone"}},{"id":4218,"title":{"id":1376,"name":"Doctor Who"}},{"id":4219,"title":{"id":1680,"name":"Flash Gordon"}},{"id":3416,"title":{"id":4744,"name":"The Getaway: High Speed II"}},{"id":3415,"title":{"id":4670,"name":"Taxi"}},{"id":3414,"title":{"id":4842,"name":"Time Machine (Data East)"}}]},{"id":"teddy-s-tavern","name":"Teddy's Tavern","address":"1012 NE 65th St","city":"Seattle","postal_code":"98115","latitude":47.6760223,"longitude":-122.3167008,"phone":"206-522-4950","url":"http://www.teddysseattle.com/","all_ages":false,"num_games":2,"machines":[{"id":4223,"title":{"id":1578,"name":"Family Guy"}},{"id":5377,"title":{"id":2294,"name":"Hurricane"}}]},{"id":"the-brass-lantern","name":"The Brass Lantern","address":"6201 McKinley Ave E","city":"Tacoma","postal_code":"98404","latitude":47.2005998,"longitude":-122.4205391,"phone":"(253) 314-5624","url":"https://www.facebook.com/The-Brass-Lantern-115804898448954/","all_ages":false,"num_games":1,"machines":[{"id":3423,"title":{"id":5191,"name":"Wheel Of Fortune"}}]},{"id":"the-brotherhood-lounge","name":"The Brotherhood Lounge","address":"119 Capitol Way N","city":"Olympia","postal_code":"98501","latitude":47.0453989,"longitude":-122.9021218,"phone":"(360) 352-4153","url":"http://thebrotherhoodlounge.com/","all_ages":false,"num_games":2,"machines":[{"id":4710,"title":{"id":4710,"name":"The Addams Family"}},{"id":4484,"title":{"id":1429,"name":"Dr. Dude"}}]},{"id":"the-church-cantina","name":"The Church Cantina","address":"5240 S Tacoma Way","city":"Tacoma","postal_code":"98409","latitude":47.209351494949495,"longitude":-122.48381806060605,"phone":"(253) 292-0544","url":"https://www.facebook.com/thechurchcantina/","all_ages":false,"num_games":3,"machines":[{"id":5334,"title":{"id":6172,"name":"Elvira’s House of Horrors (Premium)"}},{"id":4929,"title":{"id":6155,"name":"The Munsters (Pro)"}},{"id":5577,"title":{"id":6112,"name":"Rob Zombie's Spookshow International (Standard Edition)"}}]},{"id":"the-drift-inn","name":"The Drift Inn","address":"204 1st St","city":"Bremerton","postal_code":"98337","latitude":47.5636192,"longitude":-122.6257402,"phone":"360-479-2339","url":"https://www.facebook.com/pages/The-Drift-Inn/111715285530259","all_ages":false,"num_games":1,"machines":[{"id":4095,"title":{"id":5304,"name":"World Poker Tour"}}]},{"id":"the-end-zone-sports-pub","name":"The End Zone Sports Pub","address":"1023 Bethel Ave","city":"Port Orchard","postal_code":"98366","latitude":47.533415,"longitude":-122.627617,"phone":"(360) 874-8628","url":"https://www.facebook.com/theendzoneportorchard/","all_ages":false,"num_games":2,"machines":[{"id":4253,"title":{"id":5971,"name":"Ghostbusters (Pro)"}},{"id":4254,"title":{"id":4211,"name":"South Park"}}]},{"id":"the-hidden-door","name":"The Hidden Door","address":"14525 Aurora Ave N","city":"Shoreline","postal_code":"98133","latitude":47.73439743718593,"longitude":-122.34533698994976,"phone":"(206) 420-7285","url":"https://thehiddendoorbbq.com/","all_ages":false,"num_games":2,"machines":[{"id":5609,"title":{"id":1175,"name":"Creature from the Black Lagoon"}},{"id":5610,"title":{"id":1655,"name":"Fish Tales"}}]},{"id":"the-hummingbird-saloon","name":"The Hummingbird Saloon","address":"5041 Rainier Ave S","city":"Seattle","postal_code":"98118","latitude":47.5559775,"longitude":-122.2841952,"phone":"(206) 349-1731","url":"https://www.facebook.com/pages/The-Hummingbird-Saloon/150012438486006","all_ages":false,"num_games":3,"machines":[{"id":4344,"title":{"id":1959,"name":"Goldeneye"}},{"id":3622,"title":{"id":4760,"name":"The Machine: Bride of Pinbot"}},{"id":4922,"title":{"id":3088,"name":"NBA Fastbreak"}}]},{"id":"the-ice-box","name":"The Ice Box","address":" 615 NW Bright St","city":"Seattle","postal_code":"98107","latitude":47.6598351,"longitude":-122.3647561,"phone":" (206) 588-2661","url":"https://www.facebook.com/The-ICE-BOX-323352998171635/","all_ages":true,"num_games":26,"machines":[{"id":5832,"title":{"id":29,"name":"24"}},{"id":5677,"title":{"id":4710,"name":"The Addams Family"}},{"id":5761,"title":{"id":6201,"name":"Alien (Pinball Brothers 2021)"}},{"id":4846,"title":{"id":6159,"name":"Attack From Mars (Remake Special Edition)"}},{"id":5834,"title":{"id":2378,"name":"Avatar LE"}},{"id":5681,"title":{"id":5583,"name":"The Avengers (Pro)"}},{"id":5605,"title":{"id":6181,"name":"The Avengers Infinity Quest (Pro) "}},{"id":5762,"title":{"id":5994,"name":"The Big Lebowski Pinball"}},{"id":3772,"title":{"id":1381,"name":"Dolly Parton"}},{"id":4726,"title":{"id":1655,"name":"Fish Tales"}},{"id":5366,"title":{"id":6177,"name":"Hot Wheels"}},{"id":4902,"title":{"id":2334,"name":"Indiana Jones (Williams)"}},{"id":5367,"title":{"id":2336,"name":"Indianapolis 500"}},{"id":5835,"title":{"id":2348,"name":"Iron Man"}},{"id":5604,"title":{"id":2439,"name":"Judge Dredd"}},{"id":5279,"title":{"id":2472,"name":"Junk Yard"}},{"id":5603,"title":{"id":6169,"name":"Jurassic Park (Stern Pro)"}},{"id":5763,"title":{"id":6184,"name":"Led Zeppelin (Pro)"}},{"id":4942,"title":{"id":6157,"name":"Monster Bash (Remake Classic Edition)"}},{"id":5440,"title":{"id":3647,"name":"Red \u0026 Ted's Road Show"}},{"id":5836,"title":{"id":4784,"name":"The Sopranos"}},{"id":5837,"title":{"id":4243,"name":"Space Shuttle (Williams)"}},{"id":5600,"title":{"id":4695,"name":"Terminator 2: Judgment Day"}},{"id":4905,"title":{"id":4794,"name":"Theatre of Magic"}},{"id":5678,"title":{"id":5038,"name":"Twilight Zone"}},{"id":5764,"title":{"id":5221,"name":"White Water"}}]},{"id":"the-kraken","name":"The Kraken","address":"5257 University Way NE","city":"Seattle","postal_code":"98105","latitude":47.6680678,"longitude":-122.3132135,"phone":"(206) 527-0404","url":"https://www.facebook.com/KrakenBarSeattle/","all_ages":false,"num_games":8,"machines":[{"id":3830,"title":{"id":271,"name":"Attack from Mars"}},{"id":5624,"title":{"id":662,"name":"Blackout"}},{"id":5745,"title":{"id":1486,"name":"Eight Ball Deluxe (1980 Bally)"}},{"id":3831,"title":{"id":1519,"name":"Elvira and the Party Monsters"}},{"id":5744,"title":{"id":1817,"name":"Funhouse"}},{"id":568,"title":{"id":2898,"name":"Medieval Madness"}},{"id":3832,"title":{"id":3007,"name":"Monster Bash"}},{"id":3837,"title":{"id":3917,"name":"Seawitch"}}]},{"id":"the-local-907","name":"The Local 907","address":"907 S 3rd St","city":"Renton","postal_code":"98057","latitude":47.47954439999999,"longitude":-122.2049669,"phone":"(425) 255-2511","url":"","all_ages":false,"num_games":2,"machines":[{"id":4221,"title":{"id":1655,"name":"Fish Tales"}},{"id":2506,"title":{"id":3870,"name":"Scared Stiff"}}]},{"id":"the-lookout","name":"The Lookout","address":"757 Bellevue Avenue East","city":"Seattle","postal_code":"98102","latitude":47.6267915,"longitude":-122.3268709,"phone":"(206) 860-2752","url":"https://www.facebook.com/lookoutseattle/","all_ages":false,"num_games":2,"machines":[{"id":5320,"title":{"id":1486,"name":"Eight Ball Deluxe (1980 Bally)"}},{"id":4741,"title":{"id":5658,"name":"Metallica (Pro)"}}]},{"id":"the-machine-shop","name":"The Machine SHOP","address":"630 2nd St","city":"Langley ","postal_code":"98260","latitude":48.04068300000001,"longitude":-122.414581,"phone":"(425) 367-3319","url":"https://www.facebook.com/heavymetal8tim/","all_ages":true,"num_games":47,"machines":[{"id":5283,"title":{"id":49,"name":"4 Square"}},{"id":4393,"title":{"id":6051,"name":"Aerosmith (Premium)"}},{"id":2356,"title":{"id":151,"name":"Alien Poker"}},{"id":1992,"title":{"id":295,"name":"Aztec (EM)"}},{"id":2146,"title":{"id":503,"name":"Big Brave"}},{"id":3646,"title":{"id":647,"name":"Black Knight"}},{"id":2143,"title":{"id":787,"name":"Buccaneer (Gottlieb 1976)"}},{"id":5287,"title":{"id":790,"name":"Buck Rogers (gottlieb)"}},{"id":4418,"title":{"id":1105,"name":"Contact (Williams 1978)"}},{"id":2148,"title":{"id":1178,"name":"Crescendo"}},{"id":4384,"title":{"id":1359,"name":"Dipsy Doodle"}},{"id":3644,"title":{"id":1392,"name":"Doozie"}},{"id":4385,"title":{"id":1563,"name":"Faces"}},{"id":2866,"title":{"id":1638,"name":"Fire Queen"}},{"id":2355,"title":{"id":1699,"name":"Flight 2000"}},{"id":5282,"title":{"id":1719,"name":"Flying Carpet (Gottlieb)"}},{"id":2272,"title":{"id":1830,"name":"Galactic Girl"}},{"id":3612,"title":{"id":5977,"name":"Ghostbusters (Limited Edition)"}},{"id":4383,"title":{"id":1970,"name":"Gorgar"}},{"id":5290,"title":{"id":2451,"name":"Jumpin' Jacks"}},{"id":5289,"title":{"id":2452,"name":"Jumping Jack"}},{"id":5416,"title":{"id":5921,"name":"KISS (Stern LE)"}},{"id":2014,"title":{"id":2763,"name":"Lucky Strike"}},{"id":5293,"title":{"id":4760,"name":"The Machine: Bride of Pinbot"}},{"id":2271,"title":{"id":2869,"name":"Mars Trek"}},{"id":4392,"title":{"id":2884,"name":"Mata Hari"}},{"id":4509,"title":{"id":3016,"name":"Monte Carlo (Bally 1973)"}},{"id":5424,"title":{"id":6156,"name":"The Munsters (Premium)"}},{"id":5694,"title":{"id":5756,"name":"Mustang (Pro Stern)"}},{"id":4510,"title":{"id":3141,"name":"Night Rider (SS)"}},{"id":4595,"title":{"id":3583,"name":"Quick Draw"}},{"id":3610,"title":{"id":3722,"name":"Road Kings"}},{"id":4594,"title":{"id":3973,"name":"Ship-Mates"}},{"id":1991,"title":{"id":4140,"name":"Skylab"}},{"id":2358,"title":{"id":4155,"name":"SlugFest (1991 Williams)"}},{"id":5288,"title":{"id":4228,"name":"Space Mission"}},{"id":5294,"title":{"id":4288,"name":"Spider-Man"}},{"id":2868,"title":{"id":4359,"name":"Spy Hunter"}},{"id":5292,"title":{"id":4404,"name":"Star Race"}},{"id":4389,"title":{"id":4551,"name":"Super Mario Bros. Mushroom World"}},{"id":5285,"title":{"id":4581,"name":"Super-Flite"}},{"id":5291,"title":{"id":4608,"name":"Suspense (Williams 1946)"}},{"id":3645,"title":{"id":4661,"name":"Target Alpha"}},{"id":3611,"title":{"id":4671,"name":"Teacher's Pet"}},{"id":2151,"title":{"id":5633,"name":"TRON Legacy (4th Edition)"}},{"id":4386,"title":{"id":5284,"name":"Wizard"}},{"id":5415,"title":{"id":5319,"name":"Xenon"}}]},{"id":"the-meyer","name":"The Meyer","address":"118 South Washington St.","city":"Seattle","postal_code":"98104","latitude":47.6010496,"longitude":-122.3333214,"phone":"","url":"","all_ages":false,"num_games":3,"machines":[{"id":4633,"title":{"id":6004,"name":"Batman (66 Premium)"}},{"id":5511,"title":{"id":3870,"name":"Scared Stiff"}},{"id":5510,"title":{"id":5694,"name":"The Wizard of Oz"}}]},{"id":"the-mule-tavern","name":"The Mule Tavern","address":"5227 S Tacoma Way","city":"Tacoma","postal_code":"98409","latitude":47.2087577,"longitude":-122.4833201,"phone":"(253) 212-3112","url":"https://www.facebook.com/themuletavern/","all_ages":false,"num_games":2,"machines":[{"id":2947,"title":{"id":3684,"name":"Rescue 911"}},{"id":2946,"title":{"id":4670,"name":"Taxi"}}]},{"id":"the-point-bar-grill","name":"The Point Bar \u0026 Grill","address":"3528 168th St NE","city":"Arlington","postal_code":"98223","latitude":48.1481716,"longitude":-122.181005325048,"phone":"(360) 653-9999","url":"https://www.pointbarandgrill.net/","all_ages":false,"num_games":1,"machines":[{"id":4725,"title":{"id":3150,"name":"No Fear: Dangerous Sports"}}]},{"id":"the-proper-salon-barber","name":"The Proper Salon \u0026 Barber","address":"1981 Bay St","city":"Port Orchard","postal_code":"98366","latitude":47.5472070159679,"longitude":-122.618200345473,"phone":"(360) 443-6184","url":"https://www.facebook.com/theproper360/","all_ages":true,"num_games":1,"machines":[{"id":4566,"title":{"id":5304,"name":"World Poker Tour"}}]},{"id":"the-racket","name":"The Racket","address":"1220 N State St","city":"Bellingham","postal_code":"98225","latitude":48.7477419,"longitude":-122.4780865,"phone":"(360) 778-1067","url":"http://www.shakedownbellingham.com/blog/","all_ages":false,"num_games":12,"machines":[{"id":3553,"title":{"id":5723,"name":"AC/DC (LUCI Premium)"}},{"id":4380,"title":{"id":6162,"name":"Black Knight: Sword of Rage (Pro)"}},{"id":3140,"title":{"id":1175,"name":"Creature from the Black Lagoon"}},{"id":3789,"title":{"id":6150,"name":"Deadpool (Pro)"}},{"id":5382,"title":{"id":1578,"name":"Family Guy"}},{"id":3143,"title":{"id":5964,"name":"Game of Thrones (Pro)"}},{"id":3556,"title":{"id":6147,"name":"Iron Maiden Legacy of the Beast (Pro)"}},{"id":5383,"title":{"id":6169,"name":"Jurassic Park (Stern Pro)"}},{"id":4381,"title":{"id":5928,"name":"Medieval Madness (Limited Edition)"}},{"id":4382,"title":{"id":6157,"name":"Monster Bash (Remake Classic Edition)"}},{"id":5384,"title":{"id":6176,"name":"Rick And Morty"}},{"id":3150,"title":{"id":6047,"name":"Star Wars (Stern Pro)"}}]},{"id":"the-triple-knock","name":"The Triple Knock","address":"2713 6th Ave","city":"Tacoma","postal_code":"98406 ","latitude":47.2556825,"longitude":-122.4720551,"phone":"(206) 914-8451","url":"https://www.facebook.com/The-Triple-Knock-500111283531551/","all_ages":false,"num_games":24,"machines":[{"id":5338,"title":{"id":4710,"name":"The Addams Family"}},{"id":4340,"title":{"id":6165,"name":"Alice Cooper's Nightmare Castle"}},{"id":2474,"title":{"id":271,"name":"Attack from Mars"}},{"id":4338,"title":{"id":6162,"name":"Black Knight: Sword of Rage (Pro)"}},{"id":3087,"title":{"id":1175,"name":"Creature from the Black Lagoon"}},{"id":4198,"title":{"id":1817,"name":"Funhouse"}},{"id":3043,"title":{"id":5964,"name":"Game of Thrones (Pro)"}},{"id":1885,"title":{"id":5971,"name":"Ghostbusters (Pro)"}},{"id":3086,"title":{"id":6136,"name":"Guardians of the Galaxy (Pro)"}},{"id":2129,"title":{"id":2369,"name":"JackBot"}},{"id":4409,"title":{"id":6169,"name":"Jurassic Park (Stern Pro)"}},{"id":1905,"title":{"id":4757,"name":"The Lord of the Rings"}},{"id":4195,"title":{"id":2898,"name":"Medieval Madness"}},{"id":1912,"title":{"id":5658,"name":"Metallica (Pro)"}},{"id":2309,"title":{"id":3007,"name":"Monster Bash"}},{"id":3896,"title":{"id":6155,"name":"The Munsters (Pro)"}},{"id":4339,"title":{"id":4781,"name":"The Simpsons Pinball Party"}},{"id":2603,"title":{"id":6047,"name":"Star Wars (Stern Pro)"}},{"id":5667,"title":{"id":6199,"name":"Star Wars The Mandalorian (Pro)"}},{"id":4643,"title":{"id":6174,"name":"Stranger Things (Pro)"}},{"id":4644,"title":{"id":6145,"name":"Total Nuclear Annihilation"}},{"id":3922,"title":{"id":5038,"name":"Twilight Zone"}},{"id":4430,"title":{"id":6168,"name":"Willy Wonka and the Chocolate Factory - Standard Edition"}},{"id":2604,"title":{"id":5319,"name":"Xenon"}}]},{"id":"the-whit-s-end","name":"The Whit's End","address":"6510 Phinney Ave N","city":"Seattle","postal_code":"98103","latitude":47.6763512,"longitude":-122.3541234,"phone":"(206) 850-8888","url":"https://www.thewhitsendbar.com/","all_ages":false,"num_games":5,"machines":[{"id":5671,"title":{"id":277,"name":"Austin Powers"}},{"id":5672,"title":{"id":1519,"name":"Elvira and the Party Monsters"}},{"id":5673,"title":{"id":2472,"name":"Junk Yard"}},{"id":5674,"title":{"id":4211,"name":"South Park"}},{"id":5675,"title":{"id":4288,"name":"Spider-Man"}}]},{"id":"tik-tok-s-workshop","name":"Tik Tok's Workshop","address":"1216 Sylvan Way ","city":"Bremerton","postal_code":"98310","latitude":47.5957393589744,"longitude":-122.62890925641,"phone":"(360) 271-3271","url":"https://www.facebook.com/TikToksWorkshop","all_ages":false,"num_games":15,"machines":[{"id":5395,"title":{"id":5431,"name":"AC/DC (Premium)"}},{"id":5441,"title":{"id":6004,"name":"Batman (66 Premium)"}},{"id":4975,"title":{"id":648,"name":"Black Knight 2000"}},{"id":3867,"title":{"id":932,"name":"Centaur"}},{"id":5442,"title":{"id":1338,"name":"Devil's Dare"}},{"id":4985,"title":{"id":1987,"name":"Grand Prix (Williams EM)"}},{"id":4982,"title":{"id":6144,"name":"Houdini Master of Mystery"}},{"id":3894,"title":{"id":2301,"name":"Icarus"}},{"id":5394,"title":{"id":2465,"name":"Jungle Lord"}},{"id":4983,"title":{"id":4314,"name":"Spooksville"}},{"id":3864,"title":{"id":4414,"name":"Star Trek: The Next Generation"}},{"id":5444,"title":{"id":6053,"name":"Star Wars (Stern Premium)"}},{"id":4984,"title":{"id":4695,"name":"Terminator 2: Judgment Day"}},{"id":5443,"title":{"id":5637,"name":"The Wizard of Oz (Emerald City LE)"}},{"id":4444,"title":{"id":5301,"name":"World Cup Soccer"}}]},{"id":"time-out-ale-house","name":"Time Out Ale House","address":"34525 16th Ave S","city":"Federal Way","postal_code":"98003","latitude":47.29180350000001,"longitude":-122.3140269,"phone":"(253) 838-0086","url":"http://www.timeoutalehouse.com/","all_ages":false,"num_games":1,"machines":[{"id":4646,"title":{"id":2898,"name":"Medieval Madness"}}]},{"id":"tony-v-s-garage","name":"Tony V's Garage","address":"1712 Hewitt Ave","city":"Everett","postal_code":"98201","latitude":47.9789626,"longitude":-122.2064198,"phone":"(425) 374-3567","url":"http://tonyvsgarage.com/","all_ages":false,"num_games":1,"machines":[{"id":4278,"title":{"id":2898,"name":"Medieval Madness"}}]},{"id":"tower-lanes-entertainment-center","name":"Tower Lanes Entertainment Center","address":"6323 6th Ave","city":"Tacoma","postal_code":"98406","latitude":47.2565433,"longitude":-122.5221955,"phone":"","url":"","all_ages":true,"num_games":1,"machines":[{"id":5777,"title":{"id":6169,"name":"Jurassic Park (Stern Pro)"}}]},{"id":"tracyton-movie-house","name":"Tracyton Movie House","address":"1520 NE Riddell Rd","city":"Bremerton","postal_code":"98310","latitude":47.606973329626726,"longitude":-122.62977291634681,"phone":"","url":"https://tracytonmoviehouse.com/","all_ages":true,"num_games":2,"machines":[{"id":5397,"title":{"id":431,"name":"Batman (Data East)"}},{"id":5399,"title":{"id":5051,"name":"Twister (SEGA 1996)"}}]},{"id":"triple-r-brewery","name":"Triple R Brewery","address":"916 NE 64th St","city":"Seattle","postal_code":"98115","latitude":47.6752147,"longitude":-122.3178868,"phone":"(206) 898-3094","url":"https://twitter.com/TripleRBrewery","all_ages":false,"num_games":2,"machines":[{"id":5448,"title":{"id":3006,"name":"Monopoly"}},{"id":5449,"title":{"id":3411,"name":"Pirates of the Caribbean (Stern)"}}]},{"id":"twilight-exit","name":"Twilight Exit","address":"2514 E Cherry St","city":"Seattle","postal_code":"98122","latitude":47.6082072,"longitude":-122.2994369,"phone":"(206) 324-7462","url":"https://www.facebook.com/Twilight-Exit-133599351440/","all_ages":false,"num_games":3,"machines":[{"id":4343,"title":{"id":5964,"name":"Game of Thrones (Pro)"}},{"id":5414,"title":{"id":6136,"name":"Guardians of the Galaxy (Pro)"}},{"id":5413,"title":{"id":6155,"name":"The Munsters (Pro)"}}]},{"id":"twin-dragon-sports-bar","name":"Twin Dragon Sports Bar","address":"15321 Main St NE","city":"Duvall","postal_code":"98019","latitude":47.7390888,"longitude":-121.9871716,"phone":"(425) 788-5519","url":"https://www.facebook.com/twindragonsportsbar/","all_ages":false,"num_games":1,"machines":[{"id":4621,"title":{"id":5971,"name":"Ghostbusters (Pro)"}}]},{"id":"vera-s-pizza-and-bar","name":"Vera's Pizza and Bar","address":"5417 22nd Avenue NW","city":"Seattle","postal_code":"98107","latitude":47.6683926,"longitude":-122.3849118,"phone":"","url":"","all_ages":false,"num_games":3,"machines":[{"id":4420,"title":{"id":3686,"name":"Revenge From Mars"}},{"id":4637,"title":{"id":4794,"name":"Theatre of Magic"}},{"id":4419,"title":{"id":5375,"name":"TRON Legacy LE"}}]},{"id":"vessel-taphouse","name":"Vessel Taphouse","address":"15615 Pacific Hwy","city":"Lynnwood","postal_code":"98087","latitude":47.8570644518787,"longitude":-122.288451612675,"phone":"(206) 629-5024","url":"https://www.facebook.com/vesseltaphouse/","all_ages":false,"num_games":11,"machines":[{"id":5791,"title":{"id":4710,"name":"The Addams Family"}},{"id":5790,"title":{"id":1312,"name":"Demolition Man"}},{"id":5789,"title":{"id":1483,"name":"Eight Ball"}},{"id":5788,"title":{"id":1514,"name":"Elektra"}},{"id":5787,"title":{"id":5971,"name":"Ghostbusters (Pro)"}},{"id":5786,"title":{"id":6147,"name":"Iron Maiden Legacy of the Beast (Pro)"}},{"id":5785,"title":{"id":2408,"name":"Johnny Mnemonic"}},{"id":5784,"title":{"id":2794,"name":"Magic (Stern 1979)"}},{"id":5782,"title":{"id":3302,"name":"Paragon"}},{"id":5781,"title":{"id":5600,"name":"Star Trek (Starfleet Pro Stern)"}},{"id":4543,"title":{"id":4670,"name":"Taxi"}}]},{"id":"victory-lounge","name":"Victory Lounge","address":"433 Eastlake Avenue East","city":"Seattle","postal_code":"98109","latitude":47.6230122,"longitude":-122.329337,"phone":"(206) 382-4467","url":"https://www.facebook.com/VictoryLoungeSEA/","all_ages":false,"num_games":3,"machines":[{"id":2008,"title":{"id":1175,"name":"Creature from the Black Lagoon"}},{"id":5363,"title":{"id":4414,"name":"Star Trek: The Next Generation"}},{"id":3694,"title":{"id":4647,"name":"Tales of the Arabian Nights"}}]},{"id":"walts-lynwood-center-market","name":"Walts Lynwood Center Market","address":"4759 Lynwood Center Rd NE","city":"Bainbridge Island","postal_code":"98110","latitude":47.6057914,"longitude":-122.5477807,"phone":"206-842-5808","url":"http://www.waltsmkt.com/","all_ages":true,"num_games":2,"machines":[{"id":1666,"title":{"id":1175,"name":"Creature from the Black Lagoon"}},{"id":5392,"title":{"id":4595,"name":"Surf Champ"}}]},{"id":"waterland-arcade","name":"Waterland Arcade","address":"22306 Marine View Dr S","city":"Des Moines","postal_code":"98198","latitude":47.4015983,"longitude":-122.3241555,"phone":"(206) 271-8100","url":"http://www.waterlandarcade.com/","all_ages":true,"num_games":22,"machines":[{"id":4424,"title":{"id":271,"name":"Attack from Mars"}},{"id":5691,"title":{"id":6183,"name":"The Avengers Infinity Quest (Limited Edition)"}},{"id":5748,"title":{"id":6163,"name":"Black Knight: Sword of Rage (Premium)"}},{"id":5022,"title":{"id":6150,"name":"Deadpool (Pro)"}},{"id":4888,"title":{"id":5971,"name":"Ghostbusters (Pro)"}},{"id":5692,"title":{"id":6136,"name":"Guardians of the Galaxy (Pro)"}},{"id":4855,"title":{"id":2221,"name":"Hollywood Heat"}},{"id":4897,"title":{"id":6147,"name":"Iron Maiden Legacy of the Beast (Pro)"}},{"id":4927,"title":{"id":6170,"name":"Jurassic Park (Premium)"}},{"id":4926,"title":{"id":6185,"name":"Led Zeppelin (Premium)"}},{"id":4335,"title":{"id":2898,"name":"Medieval Madness"}},{"id":5749,"title":{"id":5656,"name":"Metallica (Premium Monsters)"}},{"id":5335,"title":{"id":6157,"name":"Monster Bash (Remake Classic Edition)"}},{"id":5417,"title":{"id":4413,"name":"Star Trek (Data East)"}},{"id":4893,"title":{"id":5600,"name":"Star Trek (Starfleet Pro Stern)"}},{"id":5418,"title":{"id":6047,"name":"Star Wars (Stern Pro)"}},{"id":5690,"title":{"id":6198,"name":"Star Wars The Mandalorian (Premium) "}},{"id":4925,"title":{"id":6175,"name":"Stranger Things (Premium)"}},{"id":4895,"title":{"id":6179,"name":"Teenage Mutant Ninja Turtles (Premium)"}},{"id":5422,"title":{"id":5217,"name":"Whirlwind"}},{"id":5423,"title":{"id":5233,"name":"WHO dunnit"}},{"id":5579,"title":{"id":5319,"name":"Xenon"}}]},{"id":"westside-pizza","name":"Westside Pizza","address":"323 High School RD NE Suite #3","city":"Bainbridge Island","postal_code":"98110","latitude":47.635755,"longitude":-122.5205124,"phone":"206-780-0755","url":"http://www.westsidepizza.com/locations/bainbridge-island","all_ages":true,"num_games":2,"machines":[{"id":4933,"title":{"id":3087,"name":"NBA"}},{"id":3848,"title":{"id":5301,"name":"World Cup Soccer"}}]},{"id":"white-buffalo-saloon","name":"White Buffalo Saloon","address":"5614 Evergreen Way","city":"Everett","postal_code":"98203","latitude":47.9462457878788,"longitude":-122.216038121212,"phone":"(425) 348-5446","url":"https://www.facebook.com/whitebuffalosalooneverett/","all_ages":false,"num_games":12,"machines":[{"id":3949,"title":{"id":662,"name":"Blackout"}},{"id":4490,"title":{"id":963,"name":"Charlie's Angels (SS)"}},{"id":4265,"title":{"id":1151,"name":"Count-Down"}},{"id":4930,"title":{"id":6150,"name":"Deadpool (Pro)"}},{"id":5816,"title":{"id":1429,"name":"Dr. Dude"}},{"id":3947,"title":{"id":1486,"name":"Eight Ball Deluxe (1980 Bally)"}},{"id":5346,"title":{"id":6177,"name":"Hot Wheels"}},{"id":5582,"title":{"id":6169,"name":"Jurassic Park (Stern Pro)"}},{"id":5381,"title":{"id":6184,"name":"Led Zeppelin (Pro)"}},{"id":4537,"title":{"id":3006,"name":"Monopoly"}},{"id":4051,"title":{"id":5600,"name":"Star Trek (Starfleet Pro Stern)"}},{"id":5581,"title":{"id":5217,"name":"Whirlwind"}}]},{"id":"zippy-s","name":"Zippy’s","address":"9614 14th Ave SW","city":"Seattle","postal_code":"98106","latitude":47.5169,"longitude":-122.353,"phone":"(206) 763-1347","url":"http://zippysgiantburgers.com/home.html","all_ages":true,"num_games":2,"machines":[{"id":5775,"title":{"id":6035,"name":"Aerosmith (Pro)"}},{"id":5776,"title":{"id":5769,"name":"Star Trek (Vengeance Premium)"}}]}]